stop_name,stop_lat,stop_lon,Routes Passing,Trips Passing,Degree,Betweenness,Score,Nearby Stops,Nearest Metro,Metro Line,Metro Distance (m),Walking Time (min)
Avantika Sec 1,28.70365,77.100518,16,16,0.0017667844522968,0.0005647484300133,0.0002295484837597,"Rohini  Sec-1 Avantika (8 m), Avantika Sec 1 (17 m), Rohini Sector-1 Avantika (133 m), Rohini Sec 2 (233 m), Rohini Sec-3/4 Xing (352 m)",Rithala,Red Line,2009.83,24.12
Rohini Sec-3/4 Xing,28.706167,77.10272,21,21,0.0020191822311963,0.0013579280343334,0.000409261356597,"Rohini Sec-3/4 Xing (19 m), Rohini  Sec-1 Avantika (350 m), Avantika Sec 1 (352 m), Avantika Sec 1 (364 m), Vishram Chowk (419 m)",Rithala,Red Line,1680.03,20.16
Vishram Chowk,28.709155,77.105354,12,12,0.0017667844522968,0.0039916506173706,0.0004272671745054,"Visram Chowk (16 m), Rohini Sec. 3-4/5-6 xing (44 m), Rithala Crossing (Rohini Sec 6 Crossing) (332 m), Rithala Crossing (337 m), Rithala Crossing (387 m)",Rohini West,Red Line,1172.22,14.07
Ayodhya Chowk,28.706559,77.110366,11,11,0.0012619888944977,0.0008875418611902,0.0002390659361665,"Ayodhya Chowk (14 m), Ayodhya Chowk (16 m), Ayodhya Chowk (18 m), Nahar Pur Village (366 m), Naharpur Village (381 m)",Rohini West,Red Line,1052.04,12.62
Naharpur Village,28.704488,77.113473,4,4,0.000504795557799,0.0001171299647022,0.0001105743796082,"Nahar Pur Village (16 m), Naharpur Village (18 m), Nahar Pur Village (29 m), Ayodhya Chowk (366 m), Ayodhya Chowk (381 m)",Rohini West,Red Line,1175.22,14.1
Rohini Sec-7,28.7017,77.1175,4,4,0.0010095911155981,0.0028739974820772,0.0001686172555731,"Rohini Sec-7 (24 m), ROHINI SECTOR 7/8 Xing (31 m), ROHINI SECTOR 7/8 Xing (47 m), Hanuman Mandir (271 m), Hanuman Mandir Sec-8 (288 m)",Rohini East,Red Line,1059.38,12.71
Hanuman Mandir,28.703281,77.120058,4,4,0.0010095911155981,0.0053523845740115,0.0001365246834731,"Hanuman Mandir Sec-8 (18 m), hanuman mandir sec 8 (21 m), Hanuman Mandir (39 m), Nav Durga Mandir (256 m), Nav Durga Mandir (258 m)",Rohini East,Red Line,754.71,9.06
Nav Durga Mandir,28.705197,77.121734,7,7,0.0015143866733972,0.0029458257984569,0.0001999758535931,"Nav Durga Mandir (5 m), Nav Durga Mandir (14 m), Nav Durga Mandir (23 m), Hanuman Mandir (268 m), hanuman mandir sec 8 (282 m)",Rohini East,Red Line,497.26,5.97
Sai Baba Chowk Rohini Sec 7,28.707658,77.123974,11,11,0.0015143866733972,0.0003500065870576,0.0001761674904657,"Rohini Sec 7 8 Xing (130 m), Rohini Sec 7 and 8 Crossing (144 m), Sai Baba Chowk Rohini (159 m), Rohini Sector-7-8 Xing (150 m), Madhuvan Chowk (176 m)",Rohini East,Red Line,201.88,2.42
Rohini Sec 7 and 8 Crossing,28.708306,77.125246,21,21,0.0022715800100959,0.0020830657611875,0.0003950426099638,"Rohini Sector-7-8 Xing (27 m), Rohini Sec 7 8 Xing (39 m), Sai Baba Chowk Rohini Sec 7 (144 m), Sai Baba Chowk Rohini (177 m), Madhuvan Chowk (189 m)",Rohini East,Red Line,110.88,1.33
Fire Station Sec-8,28.707061,77.127011,12,12,0.000504795557799,0.0,6.658573255945196e-05,"Fire Station Rohini Sec 8 (30 m), Rohini Sec 7 8 Xing (158 m), Rohini Sector-7-8 Xing (194 m), Rohini Sec 7 8 Xing (197 m), Rohini Sec 7 and 8 Crossing (221 m)",Rohini East,Red Line,111.65,1.34
Madhuvan Chowk,28.705196,77.129655,54,54,0.0047955577990913,0.0057800759416269,0.0007446175665125,"Madhuvan Chowk (75 m), Rohini Sec 7 8 Xing (179 m), Madhuban Chowk (Outer Ring Road) (230 m), Madhuban Chowk Outer Ring Road (262 m), Madhuban Chowk (Outer Ring Road) (252 m)",Pitam Pura,Red Line,331.61,3.98
Madhuban Chowk (Outer Ring Road),28.7054,77.132,39,39,0.0037859666834931,0.0012932217145862,0.0005131374508643,"Madhuban Chowk (Outer Ring Road) (56 m), Madhuvan Chowk (198 m), Madhuvan Chowk (230 m), Madhuban Chowk Pitampura Metro Stn (318 m), Madhuban Chowk Outer Ring Road (327 m)",Pitam Pura,Red Line,237.59,2.85
RU Block Power House,28.708375,77.134799,32,32,0.0025239777889954,0.002535496715935,0.0003587285734101,"Pitampura Power House (72 m), Pitampura Power House (78 m), Power House Pitam Pura (82 m), Pitampura RU-Block (169 m), Ptampura Power House (216 m)",Pitam Pura,Red Line,618.44,7.42
Pitampura RU Block,28.71064,77.13667,48,48,0.002776375567895,0.0017773386636426,0.0002342984216813,"Pitampura RU Block (82 m), Pitampura RU-Block (316 m), RU Block Power House (311 m), Ptampura Power House (343 m), Prashant Vihar (348 m)",Pitam Pura,Red Line,924.22,11.09
Pitampura RU Block,28.70992,77.13649,48,48,0.002776375567895,0.0017773386636426,0.0002342984216813,"Pitampura RU Block (82 m), Pitampura RU-Block (235 m), RU Block Power House (238 m), Ptampura Power House (265 m), Pitampura Power House (304 m)",Pitam Pura,Red Line,845.74,10.15
Pitampura RU-Block,28.7078,77.1364,4,4,0.0010095911155981,4.905889938189156e-05,0.000127265909001,"Ptampura Power House (48 m), RU Block Power House (169 m), Pitampura Power House (180 m), Pitampura Power House (183 m), Power House Pitam Pura (185 m)",Pitam Pura,Red Line,645.6,7.75
Pitampura CD Block (Aggrasen Model School),28.705913,77.138568,15,15,0.0015143866733972,0.0009787026016041,0.0002049107518199,"Pitampura CD-Block (11 m), Ptampura Power House (251 m), Pittampura AP-Block (295 m), Pittampura AP-Block (301 m), Pitampura RU-Block (298 m)",Pitam Pura,Red Line,683.47,8.2
Pittampura AP-Block,28.703376,77.139486,32,32,0.0012619888944977,0.00167844719535,0.0002186672790243,"Pittampura AP-Block (21 m), Pitampura CD Block (Aggrasen Model School) (295 m), Pitampura CD-Block (303 m), Pitam Pura KD Block (368 m), Pitam Pura KD Block (386 m)",Kohat Enclave,Red Line,600.12,7.2
Pitam Pura KD Block,28.700344,77.141026,32,32,0.0010095911155981,0.0001969158444393,0.0001593108116746,"Pitam Pura KD Block (18 m), DAV School (282 m), DAV Stop (297 m), Kohat Enclave Metro Station (350 m), DAV School (322 m)",Kohat Enclave,Red Line,259.58,3.12
DAV School,28.699811,77.145005,31,31,0.0020191822311963,0.0020097544200812,0.0003474043189275,"ND- Block Pitam Pura (46 m), ND Block Pitampura (64 m), DAV School (72 m), DAV Stop (96 m), Pitampura ND Block (98 m)",Kohat Enclave,Red Line,478.43,5.74
TV Tower (Power House),28.700093,77.151621,32,32,0.0020191822311963,0.0012040822629876,0.0004401566366049,"TV Tower (Power House) (59 m), Guru Govind Singh College (218 m), Guru Govind Singh College (243 m), Pitam Pura DD Office (350 m), Punjab Kesari (572 m)",Netaji Subhash Place,Red Line,458.84,5.51
Guru Govind Singh College,28.698123,77.151681,31,31,0.0012619888944977,0.0003821579730688,0.00019560280988,"Guru Govind Singh College (32 m), TV Tower (Power House) (182 m), TV Tower (Power House) (218 m), Pitam Pura DD Office (380 m), Netaji Subhash Palace (Wazirpur Depot) Road No 41 (445 m)",Netaji Subhash Place,Red Line,247.97,2.98
Netaji Subhash Palace (Wazirpur Depot) Road No 41,28.694143,77.151048,39,39,0.0020191822311963,0.0033393091126816,0.000312415680229,"Netaji Subhash Palace (Wazirpur Depot) Road No 41 (2 m), Wazirpur DTC Depot / Netaji Subhash Palace (34 m), Wazirpur DTC Depot / Netaji Subhash Palace (36 m), Wazirpur DTC Depot / Netaji Subhash Palace (51 m), TV Tower Pitam Pura (137 m)",Netaji Subhash Place,Red Line,262.62,3.15
Netaji Subash Place/Wazirpur Depot,28.694778,77.154843,29,29,0.0012619888944977,0.0001837282101977,0.0001517604422122,"Wazirpur Depot / Subhash Place Depot (8 m), Wazirpur Depot / Subhash Place Depot (10 m), Punjab Kesari (136 m), Punjab Kesari (Subhash Palace Depot) (157 m), Punjab Kesari (176 m)",Netaji Subhash Place,Red Line,257.41,3.09
Prem Bari Pull,28.700253,77.158334,59,59,0.0020191822311963,0.0022824106001931,0.0003672085370138,"Prem Bari Pul (24 m), Prem Bari Pull (25 m), Prembari Pul (333 m), Richi Rich (350 m), Richi Rich (369 m)",Netaji Subhash Place,Red Line,725.51,8.71
Richi Rich,28.701286,77.161926,101,101,0.0030287733467945,0.0010314152229837,0.0004814949861677,"Richi Rich (36 m), Ashok Vihar Crossing (242 m), Ashok Vihar Crossing (349 m), Ashok Vihar Crossing (357 m), Prem Bari Pull (362 m)",Netaji Subhash Place,Red Line,1076.98,12.92
Ashok Vihar Crossing,28.701953,77.164286,107,107,0.0050479555779909,0.0117246794595671,0.0011433611709086,"Ashok Vihar Crossing (109 m), Ashok Vihar Crossing (123 m), Ashok Vihar Crossing (211 m), Richi Rich (242 m), Wazir Pur Industrial Area/ Ashok Vihar Crossing (254 m)",Azadpur,Yellow Line,1269.05,15.23
Azadpur Terminal,28.707667,77.180271,246,246,0.0053003533568904,0.0082566015462753,0.0009428565513059,"Azadpur Metro station (61 m), Azadpur Terminal (72 m), Azadpur Metro Station (77 m), Azadpur Terminal (Bara Bagh Road) (159 m), Azadpur Terminal (194 m)",Azadpur,Yellow Line,461.56,5.54
Model Town III,28.706127,77.185301,142,142,0.0012619888944977,0.0001162819803882,0.0001990820627992,"Model Town III (27 m), Azadpur Metro Station (447 m), Azadpur Metro station (460 m), Bara Bagh (536 m), Bara Bagh (548 m)",Model Town,Yellow Line,929.62,11.16
Model Town II,28.704282,77.190629,144,144,0.0015143866733972,0.0017395051493714,0.0002288800156157,"Model Town II (28 m), Alpana Cinema (Model Town Mtr Stn) (343 m), Alpana Cinema (Model Town Mtr Stn) (348 m), Alpana Cinema (Model Town Mtr Stn) (354 m), Malik Pur Vill (523 m)",Model Town,Yellow Line,371.69,4.46
Alpana Cinema (Model Town Mtr Stn),28.703017,77.193837,130,130,0.0015143866733972,0.0025563457489127,0.0004599782491136,"Alpana Cinema (Model Town Mtr Stn) (37 m), Alpana Cinema (Model Town Mtr Stn) (36 m), Malik Pur Vill (325 m), Model Town II (343 m), Model Town II (342 m)",Model Town,Yellow Line,36.85,0.44
New Police Line,28.699589,77.202973,68,68,0.0017667844522968,0.0022579142611242,0.0003480082217362,"New Police Lines (60 m), TB Hospital (227 m), TB Hospital (228 m), Vijay Nagar (237 m), GTB Nagar (297 m)",GTB Nagar,Yellow Line,372.8,4.47
GTB Nagar,28.698294,77.206554,145,145,0.0025239777889954,0.005086119196979,0.000469226271227,"GTB Nagar (7 m), GTB Nagar (86 m), GTB Nagar (86 m), GTB Nagar / Haqiqat Nagar (93 m), GTB Nagar / Haqiqat Nagar (102 m)",GTB Nagar,Yellow Line,22.76,0.27
INS Hostel,28.696197,77.21214,148,148,0.0010095911155981,0.0043004968585932,0.0002056863923101,"INS Hostel (43 m), Vishwa Vidyalaya Metro Station (220 m), Khalsa College (281 m), Khalsa College (290 m), Vishwa Vidyalaya Metro Station (336 m)",Vishwa Vidyalaya,Yellow Line,282.95,3.4
Vishwa Vidyalaya Metro Station,28.695022,77.215318,148,148,0.0012619888944977,0.0054342867934085,0.0002722056584465,"Vishwa Vidyalaya Metro Station (3 m), Lucknow Road (120 m), Vishwa Vidyalaya Metro Station (121 m), Social works school (257 m), Social Works School (272 m)",Vishwa Vidyalaya,Yellow Line,58.54,0.7
Mall Road,28.69382,77.218624,179,179,0.002776375567895,0.014134212260032,0.0003986891815004,"Mall Road (27 m), Mall Road (30 m), Mall Road (124 m), Mall Road (127 m), Social Works School (128 m)",Vishwa Vidyalaya,Yellow Line,404.73,4.86
Banarsi Daas Estate Timarpur,28.697403,77.220567,62,62,0.000504795557799,0.0013260434180473,0.0001156989554004,"Banarsi Daas Estate Timarpur (36 m), Mall Road (345 m), Timarpur (362 m), Timarpur (369 m), INMAS Hospital (346 m)",Vishwa Vidyalaya,Yellow Line,628.76,7.55
Timarpur,28.701025,77.22127,62,62,0.000504795557799,0.001336460460456,0.0001361717538162,"Timarpur (38 m), Timarpur (46 m), Timar Pur Qrts (229 m), Education Office (Lucknow Rd) (236 m), DDA Flats Lucknow Road (258 m)",Vishwa Vidyalaya,Yellow Line,922.09,11.07
Balak Ram Hospital,28.70539,77.223156,65,65,0.0017667844522968,0.0023561857126809,0.0002388977811455,"Balak Ram Hospital (2 m), Balak Ram Hospital (52 m), Police Station Timarpur (193 m), Police Station Timarpur (195 m), CGHC Dispensary (212 m)",Vishwa Vidyalaya,Yellow Line,1412.91,16.96
Police Station Timarpur,28.706947,77.224038,64,64,0.0012619888944977,0.0029648170152167,0.0001952267090003,"Police Station Timarpur (14 m), Police Station Timarpur (67 m), Balak Ram Hospital (191 m), Balak Ram Hospital (193 m), Balak Ram Hospital (243 m)",Vishwa Vidyalaya,Yellow Line,1603.63,19.24
Nehru Vihar Crossing,28.709086,77.22626,35,35,0.0017667844522968,0.0042902290319842,0.0003937617668445,"Wazirabad Crossing Nehru Vihar Crossing (34 m), Nehru Vihar Xing (35 m), Wazirabad Crossing GT Road (188 m), Police Station Timarpur (256 m), Wazirabad Crossing GT Road (300 m)",Vishwa Vidyalaya,Yellow Line,1922.57,23.07
Wazirabad Crossing,28.711529,77.228752,46,46,0.0015143866733972,0.0017430283584196,0.0003537689747616,"Wazirabad Crossing (58 m), Wazirabad Crossing GT Road (181 m), Wazirabad Crossing GT Road (235 m), Nehru Vihar Crossing (364 m), Wazirabad Crossing Nehru Vihar Crossing (397 m)",Vishwa Vidyalaya,Yellow Line,2285.0,27.42
Gurudwara NanakSar,28.708955,77.242031,39,39,0.0012619888944977,0.0004916961477854,0.0003931215776709,"Gurudwara Nanak Sar (156 m), Gurudwara Nanak Sar (179 m), Gurudwara Nanak Sar Crossing (Signature Bridge) (628 m), Nanaksar Gurudwara Crossing (616 m), Gurudwara Nanak Sar Crossing (Signature Bridge) (671 m)",Shyam Park,Red Line,2817.16,33.81
Rajeev Nagar (Signature Bridge),28.705225,77.251437,35,35,0.0012619888944977,0.0001495569066108,0.0002236225129716,"Rajeev Nagar (Wazirabad Road) (143 m), Rajeev Nagar (Signature Bridge) (271 m), Khajuri (283 m), Khajuri (297 m), Nanaksar Gurudwara Crossing (402 m)",Shyam Park,Red Line,1809.5,21.71
Khajuri,28.704817,77.256617,103,103,0.0030287733467945,0.0245426737240509,0.0005798217091174,"Khajuri (109 m), Khajuri Circle (113 m), Khajuri Pusta (176 m), Khajuri (216 m), Khajuri (230 m)",Shyam Park,Red Line,1335.61,16.03
Bhajanpura,28.703658,77.26329,89,89,0.0020191822311963,0.0063050715307162,0.0003781673007813,"Bhajan Pura (10 m), Bhajanpura (53 m), Bhajanpura (68 m), Bhajanpura (76 m), Chand Bagh (150 m)",Shyam Park,Red Line,738.02,8.86
B-Block Yamuna Vihar,28.70311,77.270665,99,99,0.0022715800100959,0.0048342289168955,0.0002914172152006,"B-Block Yamuna Vihar (74 m), B-Block Yamuna Vihar (94 m), Yamuna Vihar Brijpuri (306 m), Yamuna Vihar Brij Puri (441 m), Yamuna Vihar Cluster Depot (510 m)",Shyam Park,Red Line,523.14,6.28
Yamuna Vihar Brij Puri,28.702743,77.275161,48,48,0.0012619888944977,0.0002945117253251,0.0002131379001405,"Yamuna Vihar Brijpuri (140 m), C 4 Yamuna Vihar (317 m), C 4 Yamuna Vihar (328 m), C 4 Yamuna Vihar (335 m), C 4 Yamuna Vihar (342 m)",Shyam Park,Red Line,786.46,9.44
C 4 Yamuna Vihar,28.702421,77.278568,103,103,0.0035335689045936,0.0078767410389426,0.0006138644490287,"C 4 Yamuna Vihar (8 m), C 4 Yamuna Vihar (27 m), C 4 Yamuna Vihar (30 m), c block gokul puri (303 m), Yamuna Vihar Brij Puri (335 m)",Gokulpuri,Pink Line,738.5,8.86
Gokul Puri,28.702083,77.2828,43,43,0.0012619888944977,0.000359372306147,0.0002243346191577,"C 4 Yamuna Vihar Crossing (43 m), Gokul Puri (50 m), c block gokul puri (115 m), C4 Yamuna Vihar Crossing (180 m), C4 Yamuna Vihar Crossing (193 m)",Gokulpuri,Pink Line,327.83,3.93
B R Ambedkar College (Loni Road Xing),28.701534,77.288114,62,62,0.0022715800100959,0.0020529911866954,0.0004579790135528,"B R Ambedkar College (Loni Road Xing) (38 m), B R Ambedkar College (Loni Road Xing) (48 m), MIG Flats Loni Road (402 m), MIG Flats Loni Road (422 m), MIG Flats Loni Road (438 m)",Gokulpuri,Pink Line,220.56,2.65
MIG Flates Loni Road,28.700716,77.295277,72,72,0.0010095911155981,2.4614883890750585e-05,0.0001829452756116,"MIG Flates Loni Road (38 m), MIG Flats Loni Road (64 m), Ashok Nagar / Meet Nagar (262 m), Ashok Nagar / Meet Nagar (265 m), Ashok Nagar / Meet Nagar (266 m)",Gokulpuri,Pink Line,915.29,10.98
Ashok Nagar / Meet Nagar,28.700269,77.297937,79,79,0.0015143866733972,0.0005379009769832,0.0004232637789597,"Ashok Nagar / Meet Nagar (20 m), Ashok Nagar / Meet Nagar (23 m), MIG Flats Loni Road (210 m), MIG Flates Loni Road (231 m), MIG Flates Loni Road (265 m)",Gokulpuri,Pink Line,1179.83,14.16
Nand Nagari Depot,28.699088,77.30674,40,40,0.000504795557799,0.000145857961858,0.0001353683391572,"Nand Nagri Depot (56 m), Bank Colony (430 m), Bank Colony (474 m), Gagan Cinema (Wazirabad Road) (805 m), Gagan Cinema (Wazirabad Road) (806 m)",Gokulpuri,Pink Line,2049.11,24.59
Bank Colony,28.698374,77.311063,79,79,0.0015143866733972,0.0010196185223265,0.000253613390739,"Bank Colony (49 m), Gagan Cinema (Wazirabad Road) (376 m), Gagan Cinema (Wazirabad Road) (376 m), Gagan Cinema Wazirabad Road (419 m), Nand Nagari Depot (430 m)",Jhilmil,Red Line,2516.55,30.2
Gagan Cinema,28.695833,77.315364,67,67,0.0020191822311963,0.0026629800796157,0.0002266551759071,"Nathu Chowk (15 m), Gagan Cinema (23 m), Gagan Cinema (Wazirabad Road) (188 m), Gagan Cinema Wazirabad Road (195 m), Gagan Cinema (Wazirabad Road) (193 m)",Jhilmil,Red Line,2248.42,26.98
Sunder Nagri,28.692839,77.316134,48,48,0.0017667844522968,0.0021742600298337,0.0003432690080065,"Sunder Nagri (38 m), Nand Nagari E-Block (244 m), Nand Nagari E-Block (241 m), Gagan Cinema (336 m), Gagan Cinema (340 m)",Jhilmil,Red Line,1932.0,23.18
Anand Gram,28.688367,77.319753,39,39,0.0020191822311963,0.0004823984194639,0.000346816979723,"Anand Gram Ashram (47 m), Anand Gram Kusht Ashram (70 m), Tahirpur Village (82 m), Nand Nagri Ext (117 m), Nand Nagri Ext (137 m)",Dilshad Garden,Red Line,1393.05,16.72
Anand Gram Kusht Ashram,28.688794,77.321599,29,29,0.0020191822311963,0.0004823984194639,0.0003303335723118,"Anand Gram Kusht Ashram (2 m), Anand Gram (39 m), Anand Gram (187 m), Nand Nagri Ext (209 m), Nand Nagri Ext (215 m)",Dilshad Garden,Red Line,1430.67,17.17
Tahir Pur,28.691467,77.324817,46,46,0.0025239777889954,0.004955879952967,0.0004785979444788,"Tahir Pur (18 m), DDA flats new seemapuri (61 m),  DDA flats new seemapuri (69 m), DLF More (280 m), DLF Crossing (283 m)",Dilshad Garden,Red Line,1758.09,21.1
DLF More,28.6931,77.3274,36,36,0.0022715800100959,0.0005574551942586,0.0004246907807232,"DLF More (32 m), Dlf X-Ing (43 m), DLF Crossing (56 m), DDA flats new seemapuri (250 m), Tahir Pur (306 m)",Dilshad Garden,Red Line,1994.76,23.94
Shalimar Garden Crossing,28.688383,77.330351,19,19,0.0012619888944977,2.42138742695853e-07,0.0002135425432908,"Shalimar Garden More (20 m), Shalimar Garden More (37 m), Dilshad Garden Depot Cluster (316 m), Dilshad Garden Depot Cluster (319 m), New Seema Puri Depot Cluster (325 m)",Dilshad Garden,Red Line,1636.1,19.63
New Seema Puri Depot Cluster,28.685597,77.331404,54,54,0.0040383644623927,0.0022108891970259,0.0006712065018129,"Dilshad Garden Depot Cluster (8 m), Dilshad Garden Depot Cluster (22 m), New Seema Puri Depot Cluster (84 m), New Seema Puri Depot Cluster (89 m), Shalimar Garden More (297 m)",Dilshad Garden,Red Line,1451.45,17.42
Saiyyad Nagar Dilshad Garden,28.682567,77.33155,10,10,0.0007571933366986,0.0,0.0001063542199673,"Sayeed Nagar More (19 m), Sayeed Nagar More (24 m), Saiyyad Masjid Seema Puri (93 m), New Seema Puri Depot Cluster (248 m), New Seema Puri Depot Cluster (252 m)",Dilshad Garden,Red Line,1234.77,14.82
Old Seema Puri,28.680817,77.327867,22,22,0.0020191822311963,0.0006740718036637,0.000358506324879,"Seemapuri (17 m), Dilshad Garden J and K Pocket (23 m), Seemapuri Old J / K (54 m), New Seema Puri (268 m), Saiyyad Masjid Seema Puri (316 m)",Dilshad Garden,Red Line,832.62,9.99
JandK Pocket Dilshad Garden,28.679458,77.324621,30,30,0.0035335689045936,0.0065158304073472,0.0004172971442462,"J and K Pocket Dilshad Garden (38 m), New Seema Puri (105 m), Shahdara Border Seemapuri Road (221 m), Shahdra Border (226 m), Shahdara Border Seemapuri Road (231 m)",Dilshad Garden,Red Line,503.37,6.04
Surya Nagar (Gazipur Road),28.66647,77.32161,89,89,0.0025239777889954,0.0115323514688804,0.0005321574719461,"Surya Nagar (Gazipur Road) (11 m), Surya Nagar (Gazipur Road) (55 m), Surya Nagar (155 m), Surya Nagar (164 m), Vivek Vihar Ram Mandir (228 m)",Dilshad Garden,Red Line,1043.73,12.53
Ram Prastha Temple,28.662479,77.320324,90,90,0.0017667844522968,0.0061114925010107,0.0001770184349305,"Ram Prastha Temple (81 m), Ram Prastha Temple (119 m), Ramprashta Mandir (153 m), Ram Prastha Crossing (186 m), Mausam Vihar (216 m)",Dilshad Garden,Red Line,1489.92,17.88
Ram Prastha Crossing,28.6608,77.3202,95,95,0.003281171125694,0.0054138382212413,0.0006880513492964,"Ram Prastha Crossing (41 m), Ram Prastha Crossing (51 m), Ram Prastha Temple (186 m), Shreshtha Vihar (218 m), Shreshtha Vihar (231 m)",Anand Vihar ISBT,Blue Line branch,1571.53,18.86
Anand Vihar ISBT Main Road,28.647061,77.317903,88,88,0.0025239777889954,0.0003904664009078,0.0003430073859333,"Anand Vihar ISBT Main Road (12 m), Anand Vihar ISBT Main Road (35 m), ISBT Anand Vihar (43 m), ISBT Anand Vihar (144 m), ISBT Anand Vihar (166 m)",Anand Vihar ISBT,Blue Line branch,35.5,0.43
Maharaj Pur Check Post,28.643371,77.316656,85,85,0.0012619888944977,8.971974504342723e-05,0.0001240447364237,"Mahrajpur Check Post (40 m), Gazipur Depot (169 m), Gazipur Depot (178 m), Gazi Pur Depot (190 m), Gazipur Depot (190 m)",Anand Vihar ISBT,Blue Line branch,397.34,4.77
Gazipur Depot,28.641921,77.316118,139,139,0.0040383644623927,0.0089003158144836,0.0006286942644375,"Gazi Pur Depot (21 m), Gazipur Depot (21 m), Gazipur Depot (30 m), Gazipur Depot (74 m), TELCO Gazipur (138 m)",Anand Vihar ISBT,Blue Line branch,566.41,6.8
TELCO Gazipur,28.64086,77.315388,31,31,0.0020191822311963,0.0002234753821313,0.0002237256003319,"Gazipur Depot (64 m), Gazipur Depot (117 m), Gazi Pur Depot (117 m), Gazipur Depot (128 m), Gazipur Depot (138 m)",Anand Vihar ISBT,Blue Line branch,701.44,8.42
Anand Vihar ISBT Terminal,28.646336,77.31499,96,96,0.0017667844522968,0.0002660083409475,0.0003370032425348,"Anand Vihar ISBT Terminal (8 m), Anand Vihar ISBT Terminal (55 m), ISBT Anand Vihar Terminal (75 m), ISBT Anand Vihar (227 m), ISBT Anand Vihar main Road (232 m)",Anand Vihar ISBT,Blue Line branch,298.25,3.58
Hamdard Nagar / Sangam Vihar,28.512167,77.248667,93,93,0.0012619888944977,0.0069237229990327,0.0002561879359099,"Hamdard Nagar / Sangam Vihar (115 m), Hamdrad nagar (378 m), Hamdrad nagar (417 m), Majeedia Hospital (499 m), Majeedia Hospital (508 m)",Greater Kailash,Magenta Line,3441.13,41.3
Majeedia Hospital,28.515017,77.252617,34,34,0.0025239777889954,0.0095348765778412,0.0003984985930742,"Majeedia Hospital (22 m), Jamia Hamdard Library (254 m), Jamia Hamdard Library (256 m), Air Force Station (424 m), Hamdard Nagar / Sangam Vihar (449 m)",Greater Kailash,Magenta Line,3283.8,39.41
Jamia Hamdard Library,28.5172,77.2534,15,15,0.0007571933366986,0.0001672232818601,0.0001780373827929,"Jamia Hamdard Library (27 m), Majeedia Hospital (254 m), Majeedia Hospital (259 m), Guru Ravi Das Ashram / Tughlaqabad Extension (271 m), Guru Ravi Das Ashram / Tughlaqabad Extension (277 m)",Greater Kailash,Magenta Line,3101.57,37.22
Guru Ravi Das Ashram / Tughlaqabad Extension,28.519567,77.2543,27,27,0.0020191822311963,0.0047794033683205,0.0004777525958086,"Guru Ravidass Marg (21 m), Guru Ravi Das Ashram / Tughlaqabad Extension (22 m), Guru Rabidas M (29 m), Jamia Hamdard Library (277 m), Jamia Hamdard Library (277 m)",Nehru Enclave,Magenta Line,2948.7,35.39
Tara Apartment,28.524111,77.25596,28,28,0.0022715800100959,0.0019226575489421,0.0004478663038874,"Tara Apartment (24 m), Tara Apartments Terminal (79 m), Tara Apartments Terminal (93 m), DDA Flats Kalkaji (165 m), Tara Apartment (181 m)",Govind Puri,Violet Line,2388.59,28.66
DDA Flats Kalka Ji,28.527958,77.257446,17,17,0.002776375567895,0.0007556124202915,0.0003219282950494,"DDA Flats KalkaJi (54 m), DDA Flats Kalkaji (134 m), DDA Flats Kalkaji (176 m), DDA Market Kalkaji (247 m), DDA Flats Kalkaji (290 m)",Govind Puri,Violet Line,1938.2,23.26
DDA Flats Kalka Ji,28.531872,77.258961,17,17,0.002776375567895,0.0007556124202915,0.0003219282950494,"DDA Flats Kalkaji (23 m), Govindpuri Extn Gali No. 16 (130 m), DDA Market kalka Ji (135 m), Govindpuri Ext Gali No 16 (201 m), DDA Market Kalkaji (214 m)",Govind Puri,Violet Line,1479.92,17.76
Govindpuri Ext Gali No 16,28.533575,77.259665,10,10,0.0015143866733972,0.0003321545581472,0.0002373009305293,"Govindpuri Extn Gali No. 16 (75 m), Ram Puri Gali No 13 (125 m), Rampuri Gali No 13 (146 m), Rampuri Gali No-13 (175 m), DDA Flats Kalkaji (192 m)",Govind Puri,Violet Line,1279.01,15.35
Rampuri Gali No 13,28.534824,77.26013,8,8,0.0010095911155981,2.251369305650036e-05,0.0001496975236584,"Ram Puri Gali No 13 (26 m), Rampuri Gali No-13 (96 m), Govindpuri Ext Gali No 16 (146 m), Govindpuri Extn Gali No. 16 (219 m), Govindpuri Gali No 5 (325 m)",Govind Puri,Violet Line,1133.44,13.6
Govindpuri Gali No 5,28.537641,77.261185,12,12,0.0020191822311963,0.0009144704020865,0.0003276529717038,"Govindpuri Gali No 5 (18 m), Ram Puri / Govind Puri (115 m), Govind Puri (131 m), Govind Puri (221 m), Acharya Narendra Dev College Govindpuri (220 m)",Govind Puri,Violet Line,805.09,9.66
L Block Gurudwara Kalkaji,28.54004,77.258381,2,2,0.0007571933366986,2.5554131445209046e-05,0.000124492222585,"Desh Bandhu College (278 m), Db C Kalkaji (282 m), Db C Kalkaji (288 m), Desh Bandhu Apartments (313 m), Desh Bandhu College (299 m)",Govind Puri,Violet Line,750.13,9.0
Desh Bandhu College,28.541258,77.255656,4,4,0.0012619888944977,0.0005889109414752,0.0002994906457332,"Db C Kalkaji (12 m), Db C Kalkaji (20 m), Desh Bandhu College (26 m), Desh Bandhu Gupta College (303 m), L Block Gurudwara Kalkaji (299 m)",Nehru Enclave,Magenta Line,669.34,8.03
Kalkaji BBlock,28.5435,77.2515,6,6,0.0012619888944977,2.8102966013225426e-05,0.0001904092091038,"Kalkaji B Block (22 m), b block kalka ji (155 m), Nehru Place Crossing / Paras Cinema (222 m), South Park Appartments CR Park (352 m), South Park Appartments CR Park (372 m)",Nehru Enclave,Magenta Line,283.54,3.4
Nehru Place,28.54755,77.249444,66,66,0.0035335689045936,0.0023235140727624,0.0006408282816999,"Nehru Place (119 m), Nehru Place Crossing / Paras Cinema (270 m), Paras Cinema (306 m), Paras Cinema (321 m), Kalkaji B Block (471 m)",Nehru Enclave,Magenta Line,260.84,3.13
Sant Nagar,28.552367,77.246167,56,56,0.0012619888944977,0.0019982692354706,0.0002944408835258,"Sant Nagar (17 m), Kailash Colony (373 m), East of Kailash (393 m), Nehru Place (512 m), Nehru Place (623 m)",Kailash Colony,Violet Line,321.99,3.86
Kailash Colony,28.5561,77.2411,56,56,0.0010095911155981,0.0021833011507819,0.000206090937933,"jamrood pur (257 m), East of Kailash (254 m), Kailash Colony (273 m), Lady Shri Ram College (491 m), Lady Shri Ram College (493 m)",Kailash Colony,Violet Line,384.14,4.61
Lady Shri Ram College,28.5588,77.2371,54,54,0.0012619888944977,0.0015714164493711,0.0002579973020439,"Lady Shri Ram College (30 m), jamrood pur (251 m), Central School (KV) (360 m), Central School (KV) (366 m), Central School (374 m)",Moolchand,Violet Line,679.72,8.16
Central School (KV),28.5597,77.2335,39,39,0.0025239777889954,0.0013493559369289,0.0003629937131753,"Central School (KV) (15 m), Central School (16 m), Central School (MCKR) (273 m), Central School (MCKR) (273 m), Central School (MCKR) (342 m)",Moolchand,Violet Line,526.9,6.32
Central School (MCKR),28.5616644735657,77.231819973397,54,54,0.0030287733467945,0.0085324952760996,0.0003750768901874,"Central School (MCKR) (0 m), Central School (MCKR) (153 m), Central School (MCKR) (153 m), Central School (259 m), Central School (KV) (270 m)",Moolchand,Violet Line,387.38,4.65
MCKR Hospital,28.569135,77.235154,40,40,0.0015143866733972,0.0007499980531357,0.0002400105235711,"MCKR Hospital (10 m), MCKR Hospital (33 m), moolchand hospital (397 m), Moolchand Hospital (449 m), Defence Colony (480 m)",Lajpat Nagar,Violet Line,211.12,2.53
Defence Colony,28.573,77.237367,44,44,0.002776375567895,0.0027874411833472,0.0003919655973066,"Defence Colony (Lajpat Nagar Mtr Stn) (47 m), MCKR Hospital (467 m), MCKR Hospital (473 m), MCKR Hospital (480 m), lajpat nagar double story (778 m)",Lajpat Nagar,Violet Line,278.07,3.34
Pant Nagar,28.583917,77.240533,42,42,0.0015143866733972,0.0012055296696625,0.0002524825237408,"Pant Nagar (38 m), Pant Nagar (48 m), CGO Complex (251 m), CGO Complex (346 m), Lodhi Hotel (824 m)",Jangpura,Violet Line,187.43,2.25
CGO Complex,28.587033,77.2408,72,72,0.0037859666834931,0.0037100051708199,0.0006166038434446,"CGO Complex (103 m), Pant Nagar (346 m), Pant Nagar (384 m), Pant Nagar (394 m), Lodhi Hotel (488 m)",Jangpura,Violet Line,511.75,6.14
Lodhi Hotel,28.591317,77.239667,15,15,0.0020191822311963,4.043244695865835e-05,0.0002455383452446,"Lodhi Hotel/Shiv Mandir (61 m), Lodhi Hotel (83 m), Lodhi Hotel (83 m), DPS / Police Station Nizamuddin (Lodhi Road) (299 m), Ishpat Bhawan (310 m)",Jangpura,Violet Line,998.18,11.98
Amir Khusro Park / Oberoi Hotel,28.596267,77.240433,30,30,0.0022715800100959,0.0038467996302736,0.0003753751993254,"Amir Khusro Park / Oberoi Hotel (37 m), Delhi Public School (270 m), Delhi Public School (279 m), DPS / Police Station Nizamuddin (Lodhi Road) (376 m), Lodhi Hotel (485 m)",Jangpura,Violet Line,1534.1,18.41
Delhi Public School,28.598783,77.2406,51,51,0.0025239777889954,0.0029927708468927,0.0004317761570576,"Delhi Public School (22 m), D P S School (211 m), Amir Khusro Park / Oberoi Hotel (253 m), Amir Khusro Park / Oberoi Hotel (279 m), Sunder Nagar Market (361 m)",Khan Market,Violet Line,1388.18,16.66
Sunder Nagar,28.6022,77.240417,52,52,0.0022715800100959,0.0003355594694396,0.0002201448557055,"Sunder Nagar (2 m), Sunder Nagar Market (18 m), Sunder Nagar Market (34 m), D P S School (174 m), Golf Club (260 m)",Khan Market,Violet Line,1381.23,16.58
Zoo,28.6084,77.23995,79,79,0.0017667844522968,0.0067006681740246,0.0002240393697159,"Zoo (22 m), Zoo (26 m), High Court (177 m), National Stadium (234 m), National Stadium (234 m)",Supreme Court,Blue Line,1540.02,18.48
National Stadium,28.611683,77.239967,121,121,0.0030287733467945,0.0077352246701743,0.0003521098463679,"National Stadium (116 m), National Stadium (133 m), National Stadium (134 m), National Stadium (228 m), High Court (303 m)",Supreme Court,Blue Line,1176.49,14.12
ITPO Gate No. 3,28.6155,77.24015,64,64,0.0022715800100959,0.0006104240492599,0.0002420416079331,"ITPO Gate No. 3 (20 m), ITPO Gate No. 3 (21 m), National Stadium (229 m), Pragati Maidan Gate 5 (241 m), Pragati Maidan Gate 5 (253 m)",Supreme Court,Blue Line,755.55,9.07
Pragati Maidan Gate No. 5,28.618483,77.240183,20,20,0.0010095911155981,0.0004089208138208,0.0001700280226572,"Pragati Maidan Gate 5 (84 m), Pragati Maidan Gate 5 (97 m), Supreme Court (245 m), Supreme Court (263 m), Supreme Court (285 m)",Supreme Court,Blue Line,428.01,5.14
Supreme Court,28.622877,77.240388,99,99,0.0037859666834931,0.007713155546942,0.0004112473526392,"Supreme Court / Pragati Maidan Metro Station (49 m), Pragati Maidan Metro Station (64 m), supreme court metro station (69 m), Supreme Court / Pragati Maidan Metro Station (124 m), Supreme Court (128 m)",Supreme Court,Blue Line,113.87,1.37
Pragati Maidan Metro Station,28.623433,77.240567,11,11,0.0010095911155981,0.0,0.0001120345328009,"Supreme Court / Pragati Maidan Metro Station (61 m), Supreme Court (64 m), Supreme Court (65 m), Supreme Court / Pragati Maidan Metro Station (106 m), supreme court metro station (128 m)",Supreme Court,Blue Line,168.47,2.02
ITO (Agarwal Chowk),28.629065,77.241192,59,59,0.0025239777889954,0.0035926077671838,0.0003207592659101,"ITO (31 m), i.t.o. (108 m), ITO (DDU Marg) (176 m), ITO AGCR (252 m), Bal Bhawan DDU Marg (331 m)",ITO,Violet Line,161.82,1.94
Express Building,28.633864,77.240804,72,72,0.0017667844522968,0.0001645532350017,0.0002508833437516,"Express Building-DC2809 (104 m), Shaheed Park (Bhagat Singh Terminal) (139 m), Shaheed Park (Bhagat Singh Terminal) (142 m), Express Building-DC2809 (200 m), Delhi Gate (360 m)",ITO,Violet Line,376.93,4.52
Delhi Gate / Ambedkar Stadium,28.638817,77.241013,65,65,0.0022715800100959,0.0006278773303148,0.0002757777276773,"Delhi Gate (32 m), Delhi Gate (153 m), Delhi Gate (172 m), Delhi Gate (189 m), Delhi Sectt. (235 m)",Delhi Gate,Violet Line,48.42,0.58
Darya Ganj Golcha Cinema,28.64635,77.240226,130,130,0.0030287733467945,0.0048534727836485,0.0003793323078217,"Darya Ganj (8 m), Darya Ganj (34 m), Darya Ganj / Subhash Nagar (161 m), GOLCHA CINEMA (169 m), Darya Ganj (205 m)",Jama Masjid,Violet Line,476.13,5.71
Subhash Park,28.649272,77.239311,86,86,0.0022715800100959,0.0005611642690664,0.0002725632911166,"Subhash Park (47 m), Kotwali Darya Ganj / ShantiVan (131 m), Kotwali Darya Ganj / ShantiVan (144 m), Darya Ganj / Subhash Nagar (184 m), Jama Masjid (193 m)",Jama Masjid,Violet Line,179.55,2.15
Jama Masjid,28.651255,77.237958,169,169,0.002776375567895,0.0008039231655776,0.000423356885856,"Jama Masjid (67 m), Subhash Park (220 m), Kotwali Darya Ganj / ShantiVan (230 m), Subhash Park (257 m), Kotwali Darya Ganj / ShantiVan (247 m)",Jama Masjid,Violet Line,140.69,1.69
Red Fort,28.653939,77.236401,168,168,0.002776375567895,0.0065414574411711,0.0003612172939484,"Red Fort (5 m), REDFORT (182 m), Jama Masjid (334 m), Jama Masjid (397 m), Red Fort (422 m)",Jama Masjid,Violet Line,452.93,5.44
GPO,28.661944,77.234569,229,229,0.0025239777889954,0.0027398178667073,0.0005433858886678,"GPO (76 m), Kouria Bridge (182 m), Kouria Bridge (205 m), Kouria Bridge (201 m), Hanuman Mandir / Yamuna Bazar (256 m)",Chandni Chowk,Yellow Line,494.64,5.94
Guru Govind Singh University (Kashmere Gate),28.665331,77.230123,229,229,0.003281171125694,0.0012093967264762,0.0002483441377878,"ISBT Kashmere Gate (11 m), Guru Govind Singh University (Kashmere Gate) (23 m), ISBT Kashmere Gate (Lothian Road) (32 m), Guru Govind Singh University (Kashmere Gate) (40 m), ISBT Kashmere Gate (175 m)",Chandni Chowk,Yellow Line,536.04,6.43
ISBT Kashmere Gate,28.666756,77.229348,100,100,0.0042907622412922,0.0024339931299099,0.0004883190983622,"ISBT Kashmere Gate (35 m), ISBT Kashmiri Gate (98 m), ISBT Kashmere Gate (Lothian Road) (145 m), Guru Govind Singh University (Kashmere Gate) (148 m), Kashmere Gate City Bus Terminal (160 m)",Chandni Chowk,Yellow Line,694.21,8.33
ISBT Kashmere Gate Terminal,28.667007,77.22751,50,50,0.0015143866733972,4.445922649305357e-05,0.000157626371205,"ISBT Kashmere Gate Terminal (7 m), Mori Gate Terminal (168 m), Kashmere Gate Metro Station Gate 3 (189 m), ISBT Kashmere Gate (173 m), ISBT Kashmiri Gate (177 m)",Chandni Chowk,Yellow Line,754.12,9.05
Mundka Village Metro Station,28.6822607103131,77.0300988906192,53,53,0.002776375567895,0.0018390093591092,0.000476492781294,"Mundka Village Metro Station (15 m), Mundka Village (Metro Station) (39 m), Mundka Village (Metro Station) (41 m), Mundka School (Rani Khera Road) (228 m), Mundka School (Rani Khera Road) (260 m)",Mundka,Green Line,50.26,0.6
Mile Stone Factory,28.683767,77.0114,89,89,0.002776375567895,0.0014430415008661,0.0004744200704677,"Mile Stone / Shiv Shankar Dharam Kanta (36 m), Mile Stone Factory (119 m), Oil Factory (196 m), Oil Factory (251 m), metro workshop (489 m)",Mundka Industrial Area,Green Line,561.45,6.74
Hiran Kudna Crossing,28.684678,77.000986,93,93,0.0035335689045936,0.0026616397170297,0.0005610587753553,"Hiran Kudna Crossing (2 m), Hiran Kudna Crossing (29 m), Hiran Kudna Crossing (38 m), Royal Garden Hiran Kudna Village (480 m), Royal Garden Hiran Kudna Village (561 m)",Ghevra,Green Line,475.82,5.71
Royal Garden Hiran Kudna Village,28.679822,76.999355,8,8,0.0010095911155981,0.0004095376220699,0.0001618123282581,"Royal Garden Hiran Kudna Village (83 m), Hiran Kudna Crossing (561 m), Hiran Kudna Crossing (561 m), Hiran Kudna Crossing (586 m), Hiran Kudna Crossing (595 m)",Ghevra,Green Line,676.7,8.12
Hiran Kudna Village,28.673219,76.998531,10,10,0.0015143866733972,0.0012297001816348,0.0003379486913167,"Hiran Kudna Village (8 m), Hiran Kudna Village (232 m), Hiran Kudna Village (236 m), Hiran Kudna Shiv Mandir (247 m), Hiran Kudna Shiv Mandir (255 m)",Ghevra,Green Line,1352.14,16.23
Hiran Kudna Shiv Mandir,28.672019,76.996401,8,8,0.0002523977788995,0.0,4.857214716372406e-05,"Hiran Kudna Shiv Mandir (8 m), Hiran Kudna Village (175 m), Hiran Kudna Village (183 m), Hiran Kudna Village (246 m), Hiran Kudna Village (247 m)",Ghevra,Green Line,1465.3,17.58
Hiran Kudna Village,28.671147,76.997995,10,10,0.0015143866733972,0.0012297001816348,0.0003379486913167,"Hiran Kudna Village (8 m), Hiran Kudna Shiv Mandir (183 m), Hiran Kudna Shiv Mandir (189 m), Hiran Kudna Village (236 m), Hiran Kudna Village (241 m)",Ghevra,Green Line,1572.03,18.87
Air Force Camp Hiran Kudna Village,28.663603,76.995195,8,8,0.000504795557799,0.0,0.000156730914728,"Air Force Camp Hiran Kudna Village (18 m), Neelwal Crossing (466 m), Neelwal Crossing (480 m), Hiran Kudna Village (880 m), Hiran Kudna Village (882 m)",Ghevra,Green Line,2399.71,28.8
Neelwal Crossing,28.649383,76.990633,11,11,0.0012619888944977,0.0004740477882774,0.0004041416676924,"Neelwal Crossing (11 m), Dichau Kalan School (849 m), Dichau Kalan School (865 m), neelwalcrossing (1043 m), Neelwal Crossing (1161 m)",Ghevra,Green Line,4010.41,48.13
Dichau Kalan School,28.642517,76.986424,14,14,0.0007571933366986,0.0008505245652001,0.0002126994279119,"Dichau Kalan School (20 m), Dichau Village (375 m), Dichau Village (380 m), Dichaon Kalan Village (826 m), Neelwal Crossing (865 m)",Najafgarh,Grey Line,3371.64,40.46
Dichau Village,28.639764,76.984106,17,17,0.0015143866733972,0.0020545216352518,0.0002682512542989,"Dichau Village (13 m), Dichau Kalan School (380 m), Dichau Kalan School (394 m), Dichaon Kalan Village (478 m), Neelwal Crossing (1242 m)",Najafgarh,Grey Line,3048.0,36.58
Shiv Enclave Dichau,28.624102,76.984675,17,17,0.0012619888944977,0.0028253047207393,0.000385378925979,"Shiv Enclave Dichau (16 m), Udaseen Ashram (420 m), Udaseen Ashram (435 m), Udaseen Ashram (440 m), NAJAFGARH (552 m)",Najafgarh,Grey Line,1326.51,15.92
Dichau Chowk,28.617676,76.984284,75,75,0.0015143866733972,0.0014828675337063,0.0001964935445042,"Dichau Chowk (43 m), Dichau Chowk (65 m), Dichau Chowk (68 m), Dichau Chowk (136 m), SHIV ENCLAVE (173 m)",Najafgarh,Grey Line,623.5,7.48
Health Centre,28.61415,76.985217,184,184,0.006057546693589,0.0463904156548885,0.0006283011205769,"Nazafgarh Health Centre (13 m), NajafGarh Delhi Gate (197 m), NajafGarh Delhi Gate (211 m), Najafgarh Delhi Gate (270 m), Najafgarh N Stnd (262 m)",Najafgarh,Grey Line,343.88,4.13
NajafGarh Delhi Gate,28.611746,76.985721,175,175,0.0030287733467945,0.0037147121988034,0.0004166155021973,"Najafgarh Delhi Gate (6 m), Najafgarh Delhi Gate (6 m), NajafGarh Delhi Gate (111 m), NajafGarh Delhi Gate (137 m), Health Centre (271 m)",Najafgarh,Grey Line,331.51,3.98
Police Station NajafGarh,28.6103186141233,76.9813376578563,118,118,0.002776375567895,0.0016926359600568,0.0002187299244324,"Dansa Crossing Najafgarh (155 m), Police Station Najafgarh (179 m), Police Station Najafgarh (190 m), Police Station Najafgarh (212 m), PS Najaf Garh (220 m)",Najafgarh,Grey Line,242.95,2.92
Dhansa Stand,28.6114911357481,76.9779095460606,67,67,0.002776375567895,0.0033263953595349,0.0002117322511878,"Nazafgarh Dhansa More (87 m), Nazafgarh Dhansa More (87 m), JHARODA XING (122 m), Najafgarh Dhansa More (122 m), Khera More / Ghuman Hera Crossing (209 m)",Najafgarh,Grey Line,447.43,5.37
Khera More,28.610938,76.97401,58,58,0.0017667844522968,0.0037958679345601,0.0001474694239012,"Khera More / Ghuman Hera Crossing (49 m), Khera More / Ghuman Hera Crossing (79 m), Ghuman Hera  Xing (97 m), Khera More / Ghuman Hera Crossing (106 m), Khera More / Ghuman Hera Crossing (124 m)",Najafgarh,Grey Line,833.51,10.0
Krishna Nagar / Gopal Nagar,28.606425,76.972858,38,38,0.0022715800100959,0.0220452829937094,0.0013202332798252,"Krishna Nagar / Gopal Nagar (43 m), Prem Nursary (442 m), Prem Nursery (459 m), Prem Nursary (463 m), Khera More (513 m)",Najafgarh,Grey Line,1137.45,13.65
Khera Village,28.5987725972629,76.9669809446253,18,18,0.0010095911155981,0.0006757319725708,0.0001507632493221,"khera Village (53 m), Khera Village 2 (319 m), Khera Village 2 (347 m), Krishna Nagar / Gopal Nagar (1025 m), Krishna Nagar / Gopal Nagar (1051 m)",Najafgarh,Grey Line,2126.18,25.52
Khera Village 2,28.596347,76.965226,37,37,0.0012619888944977,0.0011003464826639,0.0001802754003373,"Khera Village 2 (42 m), Khera Village (319 m), khera Village (371 m), KharKhari Nahar / Khera Dabur (1192 m), KharKhari Nahar / Khera Dabur (1194 m)",Najafgarh,Grey Line,2438.47,29.26
KharKhari Nahar / Khera Dabur,28.586969,76.959227,40,40,0.0017667844522968,0.0075662981833447,0.0006472788975986,"KharKhari Nahar / Khera Dabur (12 m), Surhera Crossing (546 m), KharKhari Jatmal / Surhera Crossing (548 m), KharKhari Jatmal Village (1016 m), KharKhari Jatmal Village (1021 m)",Najafgarh,Grey Line,3607.97,43.3
Surhera Crossing,28.5821517326493,76.9580820560017,20,20,0.0007571933366986,0.0037208126384984,9.553700653209236e-05,"KharKhari Jatmal / Surhera Crossing (18 m), KharKhari Jatmal Village (480 m), KharKhari Jatmal Village (490 m), KharKhari Nahar / Khera Dabur (546 m), KharKhari Nahar / Khera Dabur (551 m)",Najafgarh,Grey Line,4101.33,49.22
Pandwala Crossing,28.573848,76.952387,67,67,0.0030287733467945,0.010294090831853,0.0006561647988361,"Pandwala Crossing (20 m), KharKhari Jatmal Village (586 m), KharKhari Jatmal Village (599 m), KharKhari Jatmal / Surhera Crossing (1068 m), Surhera Crossing (1076 m)",Najafgarh,Grey Line,5174.82,62.1
KharKhari Rondh,28.561696,76.941952,40,40,0.000504795557799,0.0040977372372899,0.0001452445821157,"KharKhari Rondh (10 m), Hasanpur Village (735 m), Hasanpur Village (768 m), Ch Brahm Parkash Ayurvedic Hospital (1345 m), Ch Brahm Parkash Ayurvedic Hospital (1348 m)",Najafgarh,Grey Line,6863.52,82.37
Hasanpur Village,28.556475,76.936796,89,89,0.0035335689045936,0.0107316141869851,0.0005399995863497,"Hasanpur Village (39 m), KharKhari Rondh (768 m), KharKhari Rondh (769 m), Dewta Wala mandir (1024 m), Devta Wala Mandir (1028 m)",Najafgarh,Grey Line,7627.56,91.53
Devta Wala Mandir,28.548826,76.930857,20,20,0.0007571933366986,0.0007500447984973,0.0002722442388244,"Dewta Wala mandir (24 m), Hasanpur Village (1028 m), Hasanpur Village (1063 m), Ghuman Hera More / Shikarpur Crossing (1566 m), Ghuman Hera More / Shikarpur Crossing (1571 m)",Najafgarh,Grey Line,8655.12,103.87
Ghuman Hera More / Shikarpur Crossing,28.536825,76.922412,40,40,0.0012619888944977,0.0002058044185819,0.0002894742903165,"Ghuman Hera More / Shikarpur Crossing (26 m), Ghuman Hera Village (508 m), Ghuman Hera Village (518 m), Ghumman Heera Village (520 m), Ghuman Hera Village Main Road (532 m)",Sultanpur,Yellow Line,9779.76,117.36
Ghuman Hera Village Main Road,28.5326827,76.9196563,36,36,0.0012619888944977,0.0019064794479885,0.0002240715879234,"Ghumman Heera Village (13 m), Ghumman Heera Village (27 m), Ghuman Hera Village Main Road (32 m), Ghuman Hera Village (268 m), Ghuman Hera Village (275 m)",Sultanpur,Yellow Line,9247.43,110.97
Ghuman Hera DTC Depot Crossing,28.534407,76.915029,48,48,0.0017667844522968,0.0022087505284989,0.0003248893617314,"Ghuman Hera DTC Depot Crossing (35 m), Ghuman Hera DTC Depot Crossing (39 m), Ghuman Hera Depot 2 (373 m), Ghuman Hera Cluster Depot 1 (442 m), Ghuman Hera Depot 1 (445 m)",Sultanpur,Yellow Line,9185.17,110.23
Ghuman Hera Depot 2,28.537414707467,76.9133278097929,7,7,0.0002523977788995,0.0,6.6656045577809e-05,"Ghuman Hera Cluster Depot 1 (70 m), Ghuman Hera Depot 1 (73 m), Ghuman Hera Depot 1 (74 m), Ghuman Hera DTC Depot Crossing (373 m), Ghuman Hera DTC Depot Crossing (404 m)",Sultanpur,Yellow Line,9402.93,112.84
NHAI Building/ Dwarka Sec-10 Metro Station,28.579068,77.059118,46,46,0.0022715800100959,0.0111122542204938,0.0005414940807108,"Dwarka Court (33 m), Dwarka Court (51 m), NHAI Building/ Dwarka Sec-10 Metro Station (75 m), Dwarka Court (182 m), Dwarka Court (206 m)",Dwarka Sector 10,Blue Line,271.47,3.26
President Cabinet Apartments,28.582753,77.062279,42,42,0.0017667844522968,0.0012283874027937,0.000250849654216,"President Cabinet Apartments (40 m), President Cabinet Appt (54 m), Sector 8 DTC Bus Depot (133 m), President Cabinet Appartment (215 m), Dwarka Court (306 m)",Dwarka Sector 10,Blue Line,503.9,6.05
Princess Park/ Airforce Noval Office Enclave,28.587688,77.066452,67,67,0.0040383644623927,0.0041291136445577,0.0005635558189656,"Dwarka Sec-6/10 Market (5 m), Princes Apartment Sec-7 (23 m), Sec-7 Prince Park (26 m), Princess Park/ Airforce Noval Office Enclave (44 m), Dwarka 6/10 Xing (42 m)",Dwarka Sector 10,Blue Line,1143.22,13.72
Dwarka Sec-6/7,28.59126,77.069535,70,70,0.0030287733467945,0.0022639936027714,0.0003671143681669,"Dwarka Sec-6/7 Xing (8 m), Dwarka Sec 6 (42 m), Dwarka Sector-7 Princess Park Apartment (124 m), Dwarka Sec-6/7 Xing (139 m), Dwarka Sec-6/7 (138 m)",Palam,Magenta Line,1301.84,15.62
Dwarka Sec-6 Telephone Exchange,28.593228,77.070994,78,78,0.0025239777889954,0.0057244325102269,0.000356923959712,"Dwarka Sec-6 Telephone Exchange (3 m), Dwarka Sec 6/7 (19 m), Dwarka Sec-6 Telephone Exchange (28 m), Sec-6 Telephone Exchang (33 m), Dwarka Sec 6/7 (74 m)",Palam,Magenta Line,1166.63,14.0
Dwarka Sec-1 Mahalaxmi Apartment,28.5961071,77.0719115,96,96,0.0025239777889954,0.0023828568000832,0.0003193720630002,"Dwarka Sec-1 Mahalaxmi Apartment (48 m), J M International School (190 m), J M International School (196 m), Dwarka Sec 1 (238 m), Dwarka Sec 1 (243 m)",Palam,Magenta Line,1165.14,13.98
SFS Flats Sec-2 Power House,28.5999,77.0714,45,45,0.0007571933366986,0.0004553992593807,0.0001878394476509,"SFS Flat Sec-2 Power House (49 m), Binda Pur 60 Foota Road (386 m), Dwarka Sec-1 Mahalaxmi Apartment (393 m), Dwarka Sec-1 Mahalaxmi Apartment (423 m), Mahaveer Enclave Part II  and  III (455 m)",Dashrath Puri,Magenta Line,1093.75,13.13
Mahaveer Enclave Part II  and  III,28.604051,77.071622,96,96,0.0017667844522968,0.0054011585282413,0.0004160564924666,"Mahaveer Enclave Part II  and  III (36 m), Binda Pur 60 Foota Road (98 m), SFS Flat Sec-2 Power House (412 m), Mahaveer Enclave Part II  Gali No.10 (400 m), Vijay Enclave (New Dwarka Road) (420 m)",Dashrath Puri,Magenta Line,1077.23,12.93
Vijay Enclave (New Dwarka Road),28.60635,77.075033,94,94,0.0010095911155981,0.0004413271287876,0.0002401654672393,"Mahaveer Enclave Part II  Gali No.10 (20 m), Vijay Enclave (New Dwarka Road) (49 m), Mahaveer Enclave Part II  Gali No.4 (311 m), Mahaveer Enclave Part II Gali No.4 (311 m), Dwarka Puri (329 m)",Dashrath Puri,Magenta Line,871.2,10.45
Dwarka Puri,28.6076,77.078083,53,53,0.0007571933366986,0.0001070158384707,0.0001339176733746,"Mahaveer Enclave Part II  Gali No.4 (18 m), Dwarka Puri (22 m), Mahaveer Enclave Part II Gali No.4 (31 m), Vijay Enclave (New Dwarka Road) (296 m), New Dwarka Road Seetapuri (311 m)",Dashrath Puri,Magenta Line,759.77,9.12
New Dwarka Road / Seetapuri,28.60955,77.08075,25,25,0.0015143866733972,0.0004296140320115,0.0002880423370359,"New Dwarka Road Seetapuri (53 m), Dabri Village (204 m), Dabri Village (191 m), Dabri Village (228 m), Seeta Puri Ext (293 m)",Dabri Mor-Janakpuri South,Magenta Line,812.74,9.75
Dabri Crossing Dwarka Road,28.6116034250795,77.0844719340043,111,111,0.0037859666834931,0.0055042093649263,0.0004896295373884,"Seetapuri Extension (32 m), Seeta Puri Ext (139 m), Dabri Crossing Dwarka Road (164 m), Dabri Crossing Dwarka Road (209 m), Dabri Xing (215 m)",Dabri Mor-Janakpuri South,Magenta Line,465.32,5.58
Dabri Crossing (Pankha Road),28.61305,77.088391,62,62,0.0030287733467945,0.0004578446861534,0.0003765001787903,"Raghu Nagar (Janak Puri) (61 m), Dabri Crossing (Pankha Road) (72 m), C2D Janakpuri (191 m), C2D Janakpuri (208 m), Dabri Xing (216 m)",Dabri Mor-Janakpuri South,Magenta Line,434.34,5.21
Janak Cinema,28.611026,77.093012,106,106,0.0012619888944977,0.0001129539778115,0.0002310474687456,"Janak Cinema (85 m), Janak Cinema (98 m), Desu Colony Janak Puri (251 m), Desu Colony Janak Puri (255 m), Central Market C3 Janakpuri (472 m)",Dabri Mor-Janakpuri South,Magenta Line,928.31,11.14
Desu Colony Janak Puri,28.610049,77.095367,108,108,0.0012619888944977,0.0001927227671139,0.0002239934943508,"Desu Colony Janak Puri (22 m), Janak Cinema (255 m), Janak Cinema (327 m), Janak Cinema (346 m), Desu Colony Janakpuri (347 m)",Mohan Nagar,Red Line,1126.54,13.52
SagarPur Vashisht park,28.609265,77.100931,160,160,0.002776375567895,0.0032664754063146,0.00053506074557,"SagarPur Vashisht park (130 m), Desu Colony Janakpuri (272 m), Desu Colony Janakpuri (277 m), D Block Janak Puri (308 m), D Block Janak Puri (320 m)",Mohan Nagar,Red Line,600.33,7.2
D Block Janak Puri,28.61096,77.103583,126,126,0.0022715800100959,5.0955851200081526e-05,0.0003359419515118,"D Block Janak Puri (41 m), SagarPur Vashisht park (320 m), D Block Janak Puri (Pankha Road) (357 m), D Block Janak Puri (Pankha Road) (357 m), Nangal Raya DDA Market (337 m)",Mohan Nagar,Red Line,569.46,6.83
Lajwanti Garden,28.614,77.1062,90,90,0.0030287733467945,0.0041746540080534,0.0005383467182802,"Lajwanti Garden (22 m), Lajwanti Garden (Carriappa Marg) (344 m), Nangal Raya Lajwanti Garden (371 m), Lajwanti Garden (Carriappa Marg) (354 m), Nangal Raya (359 m)",Mohan Nagar,Red Line,851.35,10.22
Lajwanti Garden (Carriappa Marg),28.61313,77.109679,64,64,0.0017667844522968,0.0005772603543871,0.000240200261097,"Nangal Raya (24 m), Nangal Raya (25 m), Lajwanti Garden (Carriappa Marg) (24 m), Lajwanti Garden (38 m), Delhi Cantt. Railway Bridge (77 m)",Mohan Nagar,Red Line,832.81,9.99
Janak Setu,28.6107,77.1139,115,115,0.0015143866733972,0.0046084044161047,0.0002980779483514,"Janak Setu (35 m), Delhi Cantt. Railway Bridge (458 m), Lajwanti Garden (464 m), Nangal Raya (471 m), Nangal Raya Lajwanti Garden (464 m)",Mohan Nagar,Red Line,905.78,10.87
Supply Depot,28.606783,77.123367,122,122,0.0020191822311963,0.0084541159290406,0.0005694994609157,"Supply Depot (21 m), Kirbi Place (334 m), Kirbi Place (338 m), Kirbi Place (360 m), Kibri Place (467 m)",Mohan Nagar,Red Line,1691.37,20.3
Kibri Place,28.6044,77.1273,33,33,0.0017667844522968,0.0032807512776864,0.0002911579004013,"Kirbi Place (106 m), Kirbi Place (107 m), Kirbi Place (113 m), Kirbi Place (137 m), Kirbi Place (139 m)",Delhi Cantonment,Pink Line,1391.28,16.7
Chhawni Hospital,28.599133,77.125683,16,16,0.0010095911155981,1.2276313173616294e-05,0.0001309373326984,"P.S. Sadar Bazar (112 m), PS Sadar Bazar (103 m), C.G. Hospital (111 m), Police Station Sadar Bazar (117 m), Chhawani Hospital (119 m)",Delhi Cantonment,Pink Line,1082.5,12.99
Kabul Line,28.5977,77.1292,59,59,0.0022715800100959,0.0038379167863796,0.0003139510909817,"Kabul Line (50 m), Dr. APJ Abdul Kalam School (342 m), C-B Sec. School (358 m), P S Sadar Bazar (363 m), Chhawni Hospital (379 m)",Delhi Cantonment,Pink Line,709.36,8.51
Shastri Bazar,28.5966,77.1347,69,69,0.0035335689045936,0.0110030331209412,0.0007964180056943,"Shastri Bazar (81 m), Shastri Bazar (108 m), C-B Sec. School (372 m), Dr. APJ Abdul Kalam School (380 m), Kabul Line (552 m)",Delhi Cantonment,Pink Line,307.86,3.69
Sri Nagesh Garden,28.596667,77.140783,38,38,0.0010095911155981,0.0010905604889041,0.0001826135692837,"Mall Road (8 m), Mall Road Delhi Cantt. (13 m), Mall Road/Delhi Cantt. (16 m), Sri Nagesh Garden (18 m), Signal Officer Flats (312 m)",Delhi Cantonment,Pink Line,648.82,7.79
St Marry School,28.5966333333333,77.14535,22,22,0.0012619888944977,0.0095497952849437,0.0002799849759113,"St. Martin School (6 m), St. Martin School (31 m), Signal Officer Flats (417 m), Mall Road (445 m), Mall Road Delhi Cantt. (445 m)",Delhi Cantonment,Pink Line,1060.87,12.73
R R Line,28.596167,77.1504,112,112,0.0022715800100959,0.0124887571693464,0.000504067463322,"R R Line (73 m), St. Martin School (472 m), St. Martin School (492 m), St Marry School (497 m), Maharana Pratap Chowk (899 m)",Golf Course,Blue Line,938.32,11.26
Golf Club,28.592967,77.158483,114,114,0.0030287733467945,0.0191822611116419,0.0005877501811645,"Golf Club (86 m), RR Hospital / Maharana Pratap Chowk (355 m), RR Hospital (414 m), Dhaula Kuan (429 m), Dhaula Kuan (429 m)",Dhaula Kuan,Orange Line,336.85,4.04
Dhaula Kuan,28.592987,77.162865,201,201,0.0063099444724886,0.0257052760447632,0.0013766347197164,"Dhaula Kuan (0 m), Dhaula Kuan (68 m), bus stop for school childern (335 m), Golf Club (375 m), Golf Club (429 m)",Dhaula Kuan,Orange Line,166.37,2.0
Dhaula Kuan ARSD College,28.590141,77.169167,31,31,0.0020191822311963,0.0024770658374103,0.0003744866744461,"ARSD College (Dhaula Kuan) (74 m), ARSD College / Dhaula Kuan (82 m), Satya Niketan (177 m), Satya Niketan (300 m), bus stop for school childern (586 m)",Durgabai Deshmukh South Campus,Pink Line,78.31,0.94
Satya Niketan,28.588732,77.170023,170,170,0.0037859666834931,0.007636349861774,0.000483375280273,"Satya Niketan (123 m), Dhaula Kuan ARSD College (177 m), ARSD College (Dhaula Kuan) (238 m), ARSD College / Dhaula Kuan (254 m), Gurudwara Moti Bagh (467 m)",Durgabai Deshmukh South Campus,Pink Line,120.86,1.45
Gurudwara Moti Bagh,28.5851033,77.1724418,72,72,0.002776375567895,0.0035047393786576,0.00032426459338,"Moti Bagh Gurudawara Nanakpura (33 m), Moti Bagh Gurudawara Nanakpura (41 m), Moti  Bagh (181 m), Satya Niketan (346 m), South Moti Bagh (Ring Road) (393 m)",Durgabai Deshmukh South Campus,Pink Line,582.13,6.99
South Moti Bagh (Ring Road),28.581943,77.174262,113,113,0.0035335689045936,0.0025523743885997,0.0004307361719758,"South Moti Bagh (Ring Road) (2 m), Rao Tula Ram Marg (2 m), Moti Bagh (25 m), South Moti Bagh (Ring Road) (40 m), MOTI BAGH (42 m)",Sir Vishweshwaraiah Moti Bagh,Pink Line,404.72,4.86
Aradhana Enclave,28.574416,77.178621,50,50,0.0015143866733972,0.0001868541968765,0.0002792735626431,"ARADHNA ENCLAVE (91 m), RK Puram Sec-12 (118 m), RK Puram Sec-12 (261 m), RK Puram Sec 13 (458 m), Sangam Cinema (494 m)",Sir Vishweshwaraiah Moti Bagh,Pink Line,536.23,6.44
RK Puram Sec 13,28.57133,77.181727,53,53,0.0015143866733972,0.0016403709938014,0.0002712801796079,"RK Puram Sec-12 (146 m), RK Puram Sec-12 (217 m), RK Puram Crossing (380 m), Hyatt Hotel (401 m), Hyatt Hotel (408 m)",Bhikaji Cama Place,Pink Line,642.12,7.71
Hyatt Hotel,28.570143,77.185598,59,59,0.0015143866733972,0.0009425203880827,0.0002518867107209,"Hyatt Hotel (12 m), Hyatt Hotel (GAIL) (55 m), R K Puram M (62 m), Hyatt Hotel (GAIL) (125 m), RK Puram Crossing (284 m)",Bhikaji Cama Place,Pink Line,284.68,3.42
Nauroji Nagar,28.569634,77.195464,175,175,0.0035335689045936,0.0061463812123805,0.000569240546203,"Nauroji Nagar (49 m), Nauroji Nagar (56 m), AB Block Sarojini Nagar (373 m), Green Field School (422 m), Green Field School (424 m)",Sarojini Nagar,Pink Line,501.42,6.02
SJ Hospital,28.569786,77.204402,110,110,0.0022715800100959,0.0029177327500352,0.0003246329564437,"SJ Hospital (35 m), SJ Hospital Ring Road (90 m), Raj Nagar (282 m), Raj Nagar (295 m), Raj Nagar (324 m)",AIIMS,Yellow Line,464.82,5.58
Kidwai Nagar,28.575667,77.209735,120,120,0.003281171125694,0.0056942362726316,0.0003569658978367,"S.J. Terminal (48 m), Kidwai Nagar (INA Colony) (51 m), INA Colony (52 m), Safdarjung Terminal (153 m), Kidwai Nagar (184 m)",INA,Yellow Line,148.12,1.78
Safdurjung Terminal,28.579738,77.212809,34,34,0.0022715800100959,0.0214568664207737,0.0004090586210402,"Safdarjung Terminal (3 m), SAFDAR JANG TERM. (77 m), Sri Niwas Puri (165 m), Vikas Sadan (344 m), Vikas Sadan (353 m)",INA,Yellow Line,641.95,7.7
Delhi Sachivalaya (Rajghat Power House),28.638019324074,77.2526922041963,33,33,0.0015143866733972,0.000803006252239,0.0002247447439641,"Delhi Sachivalaya (Rajghat Power House) (14 m), Rajghat Gandhi Darshan (174 m), Kishan Ghat (205 m), Rajghat Gandhi Darshan (262 m), Gandhi Darshan (543 m)",Delhi Gate,Violet Line,1171.88,14.06
Rajghat Gandhi Darshan,28.6389,77.2502,21,21,0.0017667844522968,0.0004377826834304,0.0002021102414834,"Rajghat Gandhi Darshan (108 m), Delhi Sachivalaya (Rajghat Power House) (258 m), Delhi Sachivalaya (Rajghat Power House) (262 m), Gandhi Darshan (357 m), Gandhi Darshan (376 m)",Delhi Gate,Violet Line,921.43,11.06
Delhi Gate / Ambedkar Stadium Terminal,28.639661,77.243789,90,90,0.0037859666834931,0.0021433661262689,0.0004966402593087,"Delhi Gate / Ambedkar Stadium Terminal (22 m), Delhi Gate / Ambedkar Stadium Terminal (24 m), Delhi Sectt. (57 m), Delhi Gate (259 m), Delhi Gate / Ambedkar Stadium (287 m)",Delhi Gate,Violet Line,298.32,3.58
Delhi Gate,28.637446,77.241206,140,140,0.0050479555779909,0.0064821425373154,0.000609610213578,"Delhi Gate (35 m), Delhi Gate (46 m), Delhi Gate / Ambedkar Stadium (153 m), Delhi Gate (175 m), Shaheed Park (Bhagat Singh Terminal) (261 m)",Delhi Gate,Violet Line,199.15,2.39
Shaheed Park (Bhagat Singh Terminal),28.635077,77.241157,28,28,0.000504795557799,0.0,7.84659631258604e-05,"Shaheed Park (Bhagat Singh Terminal) (6 m), Express Building (139 m), Delhi Gate (227 m), Express Building-DC2809 (237 m), Delhi Gate (244 m)",Delhi Gate,Violet Line,458.82,5.51
ITO,28.629204,77.241471,187,187,0.0053003533568904,0.0052819035289098,0.0006378203585609,"ITO (Agarwal Chowk) (31 m), i.t.o. (134 m), ITO (DDU Marg) (205 m), ITO AGCR (239 m), ITO (320 m)",ITO,Violet Line,144.68,1.74
Tilak Bridge,28.6253,77.2387,219,219,0.0035335689045936,0.0026515487624492,0.0004180925852683,"Tilak Bridge (100 m), Tilak Bridge (152 m), Tilak Bridge (186 m), Pragati Maidan Metro Station (276 m), Supreme Court (268 m)",Supreme Court,Blue Line,341.46,4.1
Mandi House,28.625633,77.234,145,145,0.0037859666834931,0.01224066910925,0.0005207669952054,"Mandi house (27 m), Mandi House (35 m), Mandi House (35 m), Mandi House (134 m), Ashok Road (228 m)",Mandi House,Blue Line,20.91,0.25
Mandi House,28.625035,77.230571,145,145,0.0037859666834931,0.01224066910925,0.0005207669952054,"Mandi House (45 m), Ashok Road (115 m), Mandi House (239 m), Modern School (367 m), Mandi House (342 m)",Mandi House,Blue Line,359.05,4.31
Kasturba Gandhi Road Crossing,28.623228,77.226725,30,30,0.0010095911155981,3.844292519776579e-05,0.0001477075602387,"Kasturba Gandhi Crossing (23 m), Bhartiya Vidya Bhawan (173 m), Max Muller Bhawan (159 m), Bhartiya Vidya Bhawan (216 m), Max Mueller Bhawan (251 m)",Barakhambha Road,Blue Line,744.05,8.93
Firoz Shah Road,28.621,77.2215,68,68,0.0035335689045936,0.002813636820013,0.0005715072209936,"Firoz Shah Road (91 m), Windsor Place (106 m), Eastern Court (270 m), Ashok Road (373 m), Windsor Place (340 m)",Patel Chowk,Yellow Line,762.22,9.15
Windsor Place,28.618044,77.2189,50,50,0.0030287733467945,0.0008477193116494,0.0004885222938428,"Windsor Place (0 m), Windsor Place (37 m), Eastern Court (144 m), Le Meridian Hotel / Rajendra Prasad Road (188 m), Le Meridian Hotel (191 m)",Patel Chowk,Yellow Line,724.12,8.69
Krishi Bhawan,28.616983,77.2137,54,54,0.0035335689045936,0.0006837220516881,0.0004367715097359,"Krishi Bhawan (70 m), Central Secretariat Metro Station (234 m), Krishi Bhawan (254 m), Krishi Bhawan / Rail Bhawan Metro Station (268 m), Central Secretariat Metro Station (268 m)",Central Secretariat,Yellow Line,184.89,2.22
Krishi Bhawan / Rail Bhawan Metro Station,28.614867,77.212383,36,36,0.0012619888944977,1.4229760325902226e-05,0.0001606123068749,"Central Secretariat Metro Station (6 m), Krishi Bhawan (15 m), Rail Bhawan Metro Station / Krishi Bhawan (28 m), Central Secretariat Metro Station (38 m), Central Secretariat Metro Station (43 m)",Central Secretariat,Yellow Line,112.64,1.35
Udyog Bhawan,28.6126,77.2122,109,109,0.0042907622412922,0.0250288499312115,0.0006935784998377,"Udyog Bhawan (0 m), Udyog Bhawan (33 m), Sena Bhawan (136 m), Udyog Bhawan (238 m), Central Secretariat Metro Station (249 m)",Udyog Bhawan,Yellow Line,245.97,2.95
Sunehri Masjid/ G Block,28.609631,77.209798,27,27,0.0007571933366986,0.0003536734264342,0.0001245660633226,"G Block (12 m), G Block (Kamraj Marg) (13 m), G Block (21 m), Krishan Menon Marg (303 m), Sena Bhawan (290 m)",Udyog Bhawan,Yellow Line,338.68,4.06
Sena Bhawan,28.608163,77.206674,20,20,0.0015143866733972,0.0015201321119508,0.0003181393863293,"Sena Bhawan (13 m), Udyog Bhavan (326 m), G Block (328 m), Krishan Menon Marg (336 m), Sunehri Masjid/ G Block (346 m)",Udyog Bhawan,Yellow Line,681.73,8.18
Tyag Raj Marg,28.608938,77.203077,21,21,0.0007571933366986,0.0018388172941662,0.0001775919762865,"Tyag Raj Marg (13 m), Udyog Bhavan (238 m), Sena Bhawan (354 m), Sena Bhawan (362 m), South Enclave (397 m)",Udyog Bhawan,Yellow Line,996.76,11.96
South Enclave,28.610266,77.199312,21,21,0.0010095911155981,0.0010887312277768,0.0001303731640335,"South Enclave (21 m), South Enclave (23 m), Tyag Raj Marg (397 m), Tyag Raj Marg (405 m), Teen Murti (457 m)",Lok Kalyan Marg,Yellow Line,1365.18,16.38
Teen Murti,28.605812,77.199052,21,21,0.0007571933366986,0.0008633626529371,0.0001248488282782,"Teen Murti (41 m), Chanakya Puri Police Station (47 m), PM Sangrahalaya (In Gate) (179 m), PM Sangrahalaya (Out Gate) (238 m), PS Chankya Puri (331 m)",Lok Kalyan Marg,Yellow Line,909.06,10.91
PS Chankya Puri,28.603681,77.196685,18,18,0.0017667844522968,0.002182942796495,0.0005107285965857,"PS Chankya Puri (31 m), PM Sangrahalaya (In Gate) (230 m), Chanakya Puri Police Station (321 m), Teen Murti (331 m), Teen Murti (350 m)",Lok Kalyan Marg,Yellow Line,851.82,10.22
u k high commion,28.600892,77.192595,2,2,0.000504795557799,0.0,0.0001038689793251,"UK High Commision (6 m), China Embassy (22 m), British high Comission (295 m), USSR Embassy (319 m), PS Chankya Puri (495 m)",Lok Kalyan Marg,Yellow Line,1054.64,12.66
British high Comission,28.598468,77.191353,4,4,0.0012619888944977,0.0001253798224941,0.0002179031157358,"USSR Embassy (25 m), China Embassy (273 m), UK High Commision (289 m), u k high commion (295 m), Ashoka Hotel (640 m)",Lok Kalyan Marg,Yellow Line,1138.91,13.67
Sikkim House,28.59955,77.184967,3,3,0.000504795557799,0.0002006290758942,0.0001328712636817,"malcha marg (452 m), Bhartiya Sadhu Samaj (486 m), Bhartiya Sadhu Samaj (486 m), Malcha Marg xing (515 m), Malcha marg Xing (529 m)",Lok Kalyan Marg,Yellow Line,1768.22,21.22
Railway Colony (Sardar Patel Marg),28.600783,77.1785,107,107,0.0025239777889954,0.0054561369161898,0.0005739451417806,"Railway Colony (Sardar Patel Marg) (54 m), Malcha marg Xing (201 m), Malcha Marg xing (203 m), Bapu Dham (305 m), Bapu Dham (370 m)",Durgabai Deshmukh South Campus,Pink Line,1558.7,18.71
Bapu Dham,28.5994,77.1758,107,107,0.0015143866733972,0.0002322240898128,0.0002276558813049,"Bapu Dham (66 m), Railway Colony (Sardar Patel Marg) (255 m), Railway Colony (Sardar Patel Marg) (305 m), ITC Maurya (357 m), ITC Maurya (368 m)",Durgabai Deshmukh South Campus,Pink Line,1284.82,15.42
Officer Enclave S.P Marg,28.597,77.1713,58,58,0.0015143866733972,0.000278377436715,0.0001942633488944,"Taj Hotel (21 m), Officer Enclave S.P Marg (32 m), Sardar Patel Marg (34 m), Taj Palace (133 m), Taj Palace (135 m)",Durgabai Deshmukh South Campus,Pink Line,865.68,10.39
Dhaula Kuan,28.592721,77.163492,201,201,0.0063099444724886,0.0257052760447632,0.0013766347197164,"Dhaula Kuan (68 m), Dhaula Kuan (68 m), bus stop for school childern (302 m), Golf Club (433 m), Golf Club (491 m)",Dhaula Kuan,Orange Line,197.69,2.37
Golf Club,28.592403,77.159084,114,114,0.0030287733467945,0.0191822611116419,0.0005877501811645,"Golf Club (86 m), RR Hospital / Maharana Pratap Chowk (338 m), Dhaula Kuan (375 m), Dhaula Kuan (376 m), RR Hospital (411 m)",Dhaula Kuan,Orange Line,262.45,3.15
R R Line,28.59572,77.150948,112,112,0.0022715800100959,0.0124887571693464,0.000504067463322,"R R Line (73 m), St. Martin School (531 m), St. Martin School (553 m), St Marry School (557 m), RR Hospital (787 m)",Golf Course,Blue Line,897.07,10.77
S O Flats Carriappa Marg,28.6002,77.139733,20,20,0.000504795557799,3.307738724512092e-05,0.0001300569515137,"S O Flats Carriappa Marg/Carriappa Vihar (12 m), S O Flats Carriappa Marg (13 m), Signal Officer Flats (267 m), Sri Nagesh Garden (405 m), Mall Road (412 m)",Delhi Cantonment,Pink Line,845.08,10.14
Thimiyan Park,28.60265,77.133483,74,74,0.0017667844522968,0.0019728222304938,0.0003251935934779,"Thimiyan Park (19 m), Kirbi Place (563 m), Kirbi Place (568 m), Base Hospital (635 m), Base Hospital (641 m)",Delhi Cantonment,Pink Line,988.06,11.86
Kirbi Place,28.60535,77.126367,103,103,0.0030287733467945,0.02025136575624,0.0007070732766463,"Kirbi Place (7 m), Kirbi Place (26 m), Kibri Place (139 m), Kirbi Place (192 m), Kirbi Place (196 m)",Delhi Cantonment,Pink Line,1529.3,18.35
Supply Depot,28.606633,77.123233,122,122,0.0020191822311963,0.0084541159290406,0.0005694994609157,"Supply Depot (21 m), Kirbi Place (338 m), Kirbi Place (343 m), Kirbi Place (363 m), Kibri Place (468 m)",Mohan Nagar,Red Line,1677.84,20.13
Janak Setu,28.6104,77.1138,115,115,0.0015143866733972,0.0046084044161047,0.0002980779483514,"Janak Setu (35 m), Delhi Cantt. Railway Bridge (464 m), Lajwanti Garden (473 m), Nangal Raya Lajwanti Garden (465 m), Nangal Raya (482 m)",Mohan Nagar,Red Line,879.99,10.56
Lajwanti Garden (Carriappa Marg),28.612962,77.109517,64,64,0.0017667844522968,0.0005772603543871,0.000240200261097,"Nangal Raya (15 m), Lajwanti Garden (Carriappa Marg) (24 m), Nangal Raya (29 m), Lajwanti Garden (33 m), Delhi Cantt. Railway Bridge (60 m)",Mohan Nagar,Red Line,809.27,9.71
Lajwanti Garden,28.613845,77.106342,90,90,0.0030287733467945,0.0041746540080534,0.0005383467182802,"Lajwanti Garden (22 m), Lajwanti Garden (Carriappa Marg) (326 m), Nangal Raya Lajwanti Garden (349 m), Lajwanti Garden (Carriappa Marg) (336 m), Nangal Raya (340 m)",Mohan Nagar,Red Line,834.48,10.01
D Block Janak Puri,28.610606,77.10369,126,126,0.0022715800100959,5.0955851200081526e-05,0.0003359419515118,"D Block Janak Puri (41 m), D Block Janak Puri (Pankha Road) (317 m), D Block Janak Puri (Pankha Road) (317 m), D Block Janak Puri (Pankha Road) (327 m), Nangal Raya DDA Market (304 m)",Mohan Nagar,Red Line,529.59,6.36
SagarPur Vashisht park,28.609254,77.0996,160,160,0.002776375567895,0.0032664754063146,0.00053506074557,"SagarPur Vashisht park (130 m), Desu Colony Janakpuri (200 m), Desu Colony Janakpuri (199 m), C6 B Janakpuri (459 m), C6 B Janakpuri (465 m)",Mohan Nagar,Red Line,712.53,8.55
Desu Colony Janak Puri,28.609892,77.095236,108,108,0.0012619888944977,0.0001927227671139,0.0002239934943508,"Desu Colony Janak Puri (22 m), Janak Cinema (251 m), Janak Cinema (321 m), Janak Cinema (339 m), Desu Colony Janakpuri (365 m)",Mohan Nagar,Red Line,1132.27,13.59
Janak Cinema,28.611016,77.092008,106,106,0.0012619888944977,0.0001129539778115,0.0002310474687456,"Janak Cinema (21 m), Janak Cinema (98 m), Desu Colony Janak Puri (339 m), Desu Colony Janak Puri (346 m), Raghu Nagar (Janak Puri) (373 m)",Dabri Mor-Janakpuri South,Magenta Line,849.76,10.2
Raghu Nagar (Janak Puri),28.612528,77.088599,42,42,0.0010095911155981,8.860786408300545e-07,0.0001242713654923,"Dabri Crossing (Pankha Road) (61 m), Dabri Crossing (Pankha Road) (125 m), C2D Janakpuri (249 m), Dabri Xing (237 m), C2D Janakpuri (266 m)",Dabri Mor-Janakpuri South,Magenta Line,489.78,5.88
Dabri Crossing (Pankha Road),28.613809,77.085678,62,62,0.0030287733467945,0.0004578446861534,0.0003765001787903,"Seeta Puri Ext (58 m), C2D Janak Puri (64 m), Dabri Crossing Dwarka Road (115 m), Dabri Xing (123 m), C2D Janakpuri (147 m)",Dabri Mor-Janakpuri South,Magenta Line,221.2,2.65
C-2 Janak Puri,28.615822,77.081712,59,59,0.002776375567895,0.0004909753752507,0.0003493206507519,"Janak Puri B 1 (9 m), C-2 Janak Puri (49 m), C-1 Janak Puri (327 m), C-1 Janak Puri (335 m), C-1 Janak Puri (347 m)",Dabri Mor-Janakpuri South,Magenta Line,339.04,4.07
C-1 Janak Puri,28.617125,77.078619,96,96,0.0050479555779909,0.0097237969158418,0.0009854041068801,"C-1 Janak Puri (12 m), C-1 Janak Puri (33 m), C-1 Janak Puri (35 m), Janak Puri (171 m), Mata Chandan Devi Hospital (194 m)",Dabri Mor-Janakpuri South,Magenta Line,659.16,7.91
Janak Puri,28.617945,77.077135,40,40,0.0012619888944977,7.369037550754245e-05,0.0001814150273874,"C-1 Janak Puri (38 m), C-1 Janak Puri (146 m), C-1 Janak Puri (160 m), C-1 Janak Puri (171 m), C-1 Janak Puri (178 m)",Dabri Mor-Janakpuri South,Magenta Line,823.15,9.88
Jivan Park,28.619637,77.073604,62,62,0.0007571933366986,0.0009560355221784,0.0001296252489704,"Jivan park (50 m), Jivan park (62 m), A-2 Janak Puri Telephone Exchange (173 m), A-2 Janak Puri Telephone Exchange (182 m), C-1 Janak Puri (361 m)",Uttam Nagar East,Blue Line,997.5,11.97
Tilak Pul,28.621389,77.070002,127,127,0.0017667844522968,0.0061090941079079,0.0002967214471911,"Tilak Pul (25 m), Chander Nagar (61 m), Chander Nagar (68 m), Uttam Nagar /#REF!  Janak Puri (349 m), Jivan park (344 m)",Uttam Nagar East,Blue Line,599.59,7.2
Uttam Nagar /#REF!  Janak Puri,28.624,77.068009,66,66,0.0012619888944977,0.0033875973488496,0.0001359463465667,"Uttam Nagar / A1 Janak Puri (95 m), Uttam Nagar Terminal (180 m), Uttam Nagar (191 m), Uttam Nagar (224 m), Uttam Nagar Terminal (222 m)",Uttam Nagar East,Blue Line,282.31,3.39
Uttam Nagar Terminal,28.624597,77.06498,214,214,0.0030287733467945,0.0222143122255609,0.0003287831568618,"Uttam Nagar East Metro Station (70 m), Uttam Nagar Terminal (171 m), Uttam Nagar Terminal (209 m), Uttam Nagar / A1 Janak Puri (267 m), Uttam Nagar /#REF!  Janak Puri (304 m)",Uttam Nagar East,Blue Line,40.75,0.49
Uttam Nagar,28.623129,77.061189,164,164,0.003281171125694,0.0170778427182432,0.0003978770171228,"Uttam Nagar (87 m), Uttam Nagar (87 m), Uttam Nagar (104 m), Uttam Nagar East Metro Station (335 m), Prem Nagar (401 m)",Uttam Nagar East,Blue Line,443.57,5.32
Prem Nagar,28.621893,77.056719,173,173,0.0058051489146895,0.1166890419640078,0.0013331117746792,"Prem Nagar (27 m), Prem Nagar (39 m), Uttam Nagar West (51 m), Prem Nagar (58 m), Uttam Nagar (355 m)",Uttam Nagar West,Blue Line,99.6,1.2
Om Vihar,28.621079,77.052669,118,118,0.0012619888944977,0.0086592341699323,0.0002413008072054,"Om Vihar (46 m), Om Vihar (110 m), Om Vihar (110 m), Kiran Garden (276 m), Kiran Garden (327 m)",Uttam Nagar West,Blue Line,306.94,3.68
Kiran Garden,28.620523,77.048462,116,116,0.0007571933366986,3.1860360881033284e-08,0.0001248827855598,"Kiran Garden (0 m), Kiran Garden (34 m), Kiran Garden (94 m), Kiran Garden (141 m), Nawada (290 m)",Nawada,Blue Line,331.99,3.98
Nawada,28.620222,77.04552,63,63,0.0010095911155981,0.0038818107595004,0.0002216382035123,"Nawada Gaon (17 m), Nawada Gaon (53 m), Nawada Gaon (53 m), Kiran Garden (283 m), Kiran Garden (290 m)",Nawada,Blue Line,43.57,0.52
Mohan Garden,28.6200493466924,77.039162961751,116,116,0.0020191822311963,0.0042645780448097,0.0002079878167648,"Pipal Wala Road Crossing Mohan Garden (10 m), Pipal Wala Road Crossing Mohan Garden (26 m), Mohan Garden (27 m), Sewak Park (56 m), Mohan Garden (72 m)",Shiv Vihar,Pink Line,459.08,5.51
Sewak Park Dwarka More Metro Station,28.619263,77.033731,66,66,0.0017667844522968,0.0036705499912709,0.0003663620348124,"Dwarka More Metro Station (Sewak Park) (63 m), Kakrola More (190 m), Dwarka More Metro Station (Terminal) (243 m), Rama Park (287 m), Rama Park (286 m)",Dwarka Mor,Blue Line,44.49,0.53
Kakrola More,28.6189259761464,77.0295846256512,133,133,0.0022715800100959,0.0026965567303194,0.0002970944142503,"Kakrola More (42 m), Kakrola More (109 m), Kakrola More (217 m), Dwarka More Metro Station (Terminal) (256 m), Dwarka More Metro Station (Sewak Park) (347 m)",Dwarka Mor,Blue Line,363.81,4.37
Kakrola Bridge,28.619809,77.024876,130,130,0.0007571933366986,0.0022572287664934,0.0001476982202038,"Kakrola Bridge (6 m), Kakrola Bridge (48 m), Kakrola Bridge (86 m), Kakrola Bridge (87 m), Kakrola Bridge (100 m)",Dwarka Mor,Blue Line,823.64,9.88
Nangli Dairy,28.6197008886414,77.0176653844578,130,130,0.0012619888944977,0.002701885808516,0.0002394126025584,"Nangli Dairy (28 m), Nangli Dairy (55 m), Nangli Dairy (55 m), SUREHRA Xing (212 m), Chhathh Ghat Park (253 m)",Nangli,Grey Line,755.26,9.06
Chhathh Ghat Park,28.618803,77.015219,80,80,0.000504795557799,0.0,6.135413131573516e-05,"Chhathh Ghat Park (34 m), Arjun Park (224 m), Nangli Dairy (259 m), Arjun Park (283 m), Nangli Dairy (287 m)",Nangli,Grey Line,496.38,5.96
Arjun Park,28.618083,77.013083,129,129,0.0007571933366986,1.1881352900879956e-05,9.641568152176528e-05,"Arjun Park (60 m), Arjun Park (99 m), Arjun Park (100 m), Chhathh Ghat Park (224 m), Chhathh Ghat Park (233 m)",Nangli,Grey Line,272.87,3.27
Nangli Sakrawati Crossing,28.6162575580097,77.0080117622372,130,130,0.0007571933366986,0.0006354335473287,0.0001740418092009,"Nangli Sakrawati Crossing (52 m), Nangli Sakrawati Crossing (65 m), Nangli Sakrawati Crossing (69 m), Nangli Sakrawati (421 m), Nangli Sakrawati (437 m)",Nangli,Grey Line,263.88,3.17
Nangli Sakrawati,28.6146385971878,77.0039352633546,130,130,0.0012619888944977,0.0002561760345527,0.0001478438532472,"Nangli Sakrawati (3 m), Nangli Sakrawati (16 m), Nangli Sakrawati (47 m), Nangli Sakrawati (52 m), Nangli Sakrawati Crossing (384 m)",Nangli,Grey Line,700.99,8.41
Sai Baba Mandir,28.613536,76.999497,70,70,0.000504795557799,0.0001710472509549,0.0001115493349883,"Sai Baba Mandir (Nazafgarh) (7 m), Sai Baba Mandir (Nazafgarh) (42 m), Sai Baba Mandir (Nazafgarh) (42 m), Power House NajafGarh (322 m), Power House NajafGarh (324 m)",Nangli,Grey Line,1148.41,13.78
Power House NajafGarh,28.612929,76.995552,130,130,0.0010095911155981,0.0011128732240481,0.0001882585866336,"Power House NajafGarh (70 m), Power House NajafGarh (74 m), Tuda Mandi (316 m), Sai Baba Mandir (392 m), Sai Baba Mandir (Nazafgarh) (392 m)",Najafgarh,Grey Line,1289.03,15.47
Tuda Mandi,28.6125090959708,76.9923600178753,128,128,0.0010095911155981,0.0002769962858792,0.0001533233196057,"Tuda Mandi (84 m), Tuda Mandi (88 m), Power House NajafGarh (316 m), Power House NajafGarh (383 m), Power House NajafGarh (386 m)",Najafgarh,Grey Line,975.26,11.7
Najafgarh Dhansa More,28.611458,76.979153,78,78,0.0030287733467945,0.0058561346216133,0.0002339924613969,"JHARODA XING (27 m), Nazafgarh Dhansa More (85 m), Nazafgarh Dhansa More (85 m), Dhansa Stand (122 m), NAJAFGARH NANGLOI STAND (238 m)",Najafgarh,Grey Line,330.25,3.96
Jharoda Crossing Jharoda Road,28.6137657049756,76.9793626157992,86,86,0.002776375567895,0.0060807399936789,0.000283166289926,"NAJAFGARH NANGLOI STAND (30 m), Jharoda Crossing/Nazafgarh Terminal (38 m), Jharoda Crossing (154 m), Najafgarh Terminal (161 m), Najafgarh Terminal (161 m)",Najafgarh,Grey Line,337.57,4.05
NajafGarh Terminal,28.6148311619155,76.9772491148408,69,69,0.0020191822311963,0.0262541631526318,0.0002699975047775,"Najafgarh Terminal (80 m), Najafgarh Terminal (80 m), Surakh Pur Crossing (110 m), Surakh Pur Crossing (117 m), Gopal Nagar (218 m)",Najafgarh,Grey Line,575.59,6.91
Tilak Nagar Terminal,28.6363235433356,77.0957438603281,79,79,0.0030287733467945,0.0062036835131337,0.0004170548474178,"Tilak Nagar Terminal (29 m), Tilak Nagar Jail Road (113 m), Tilak Nagar Terminal (134 m), Tilak Nagar Jail Road (270 m), Tilak Nagar Crossing (Najafgarh Road) (288 m)",Tilak Nagar,Blue Line,77.65,0.93
Janak Puri Check Post,28.633858754923,77.0888298522768,61,61,0.0022715800100959,0.0001049225319327,0.0002205894053434,"Janak Puri Check Post (28 m), Check Post Janak Puri (52 m), Ganesh Nagar Check Post (74 m), Ganesh Nagar (135 m), Ganesh Nagar (192 m)",Janakpuri East,Blue Line,222.94,2.68
B2A Janakpuri,28.632306,77.084585,69,69,0.002776375567895,0.0008455843189058,0.0004110612729806,"Janakpuri East Metro Station/ Nangli Zalib (6 m), Mahavir Nagar (102 m), Janakpuri East Metro Station/ Nangli Zalib (133 m), Janakpuri East Nangli Zalib (202 m), Janak Puri East Metro St. (228 m)",Janakpuri East,Blue Line,226.68,2.72
Janak Puri District Centre,28.630488,77.080047,69,69,0.0020191822311963,0.0003459979851357,0.0002510493590152,"District Centre Nazafgarh Road (10 m), Janak Puri West (20 m), District Centre Najafgarh Road (177 m), Janak Puri  District Centre (195 m), Vikas Kunj (238 m)",Janakpuri West,Blue Line,268.63,3.22
Dholi Piao,28.629119,77.076482,202,202,0.006057546693589,0.0255304372855436,0.0010109621675747,"Dholi Piao (17 m), Dholi Piao (80 m), Dholi Piao (99 m), Janakpuri West (110 m), Janak Puri  District Centre (195 m)",Janakpuri West,Blue Line,142.19,1.71
Vikaspuri Crossing,28.626449,77.06969,101,101,0.0022715800100959,0.0018668559161843,0.0004272917247891,"Vikaspuri Crossing (Shivaji Marg) (15 m), Vikas Puri A Block (102 m), Vikaspuri Xing (128 m), Uttam Nagar Terminal (126 m), Uttam Nagar Terminal (126 m)",Uttam Nagar East,Blue Line,465.83,5.59
Uttam Nagar / A1 Janak Puri,28.624813,77.067696,62,62,0.0015143866733972,0.0035963107222212,0.0001598630820817,"Uttam Nagar /#REF!  Janak Puri (95 m), Uttam Nagar Terminal (93 m), Uttam Nagar (115 m), Uttam Nagar (141 m), Uttam Nagar Terminal (141 m)",Uttam Nagar East,Blue Line,235.69,2.83
Tilak Pul,28.621617,77.069969,127,127,0.0017667844522968,0.0061090941079079,0.0002967214471911,"Tilak Pul (25 m), Chander Nagar (42 m), Chander Nagar (53 m), Uttam Nagar /#REF!  Janak Puri (326 m), Jivan park (358 m)",Uttam Nagar East,Blue Line,581.22,6.97
Jivan park,28.620041,77.073165,59,59,0.0007571933366986,0.0012684006317403,0.0001766984049464,"Jivan park (14 m), Jivan Park (62 m), A-2 Janak Puri Telephone Exchange (233 m), A-2 Janak Puri Telephone Exchange (241 m), Tilak Pul (344 m)",Uttam Nagar East,Blue Line,936.64,11.24
C-1 Janak Puri,28.618239,77.076935,96,96,0.0050479555779909,0.0097237969158418,0.0009854041068801,"Janak Puri (38 m), C-1 Janak Puri (179 m), A-2 Janak Puri Telephone Exchange (179 m), Mata Chandan Devi Hospital (182 m), A-2 Janak Puri Telephone Exchange (188 m)",Dabri Mor-Janakpuri South,Magenta Line,851.83,10.22
C-2 Janak Puri,28.616152,77.081383,59,59,0.002776375567895,0.0004909753752507,0.0003493206507519,"C-2 Janak Puri (49 m), Janak Puri B 1 (57 m), C-1 Janak Puri (283 m), C-1 Janak Puri (291 m), C-1 Janak Puri (301 m)",Dabri Mor-Janakpuri South,Magenta Line,373.73,4.48
Dabri Crossing Dwarka Road,28.6119649822901,77.086093528644,111,111,0.0037859666834931,0.0055042093649263,0.0004896295373884,"Dabri Xing (93 m), Dabri Crossing Dwarka Road (96 m), Seetapuri Extension (133 m), Dabri Crossing Dwarka Road (164 m), Dabri Crossing (Pankha Road) (208 m)",Dabri Mor-Janakpuri South,Magenta Line,429.54,5.15
New Dwarka Road Seetapuri,28.6090705757659,77.0807961373242,31,31,0.0012619888944977,0.0036888515353654,0.0003227714255271,"New Dwarka Road / Seetapuri (53 m), Dabri Village (161 m), Dabri Village (185 m), Dabri Village (177 m), Vijay Enclave (Palam-Dabri Road) (282 m)",Dashrath Puri,Magenta Line,811.93,9.74
Dwarka Puri,28.607483,77.078267,53,53,0.0007571933366986,0.0001070158384707,0.0001339176733746,"Dwarka Puri (22 m), Mahaveer Enclave Part II Gali No.4 (30 m), Mahaveer Enclave Part II  Gali No.4 (34 m), New Dwarka Road Seetapuri (304 m), Vijay Enclave (Palam-Dabri Road) (297 m)",Dashrath Puri,Magenta Line,739.08,8.87
Vijay Enclave (New Dwarka Road),28.6062,77.0755,94,94,0.0010095911155981,0.0004413271287876,0.0002401654672393,"Vijay Enclave (New Dwarka Road) (49 m), Mahaveer Enclave Part II  Gali No.10 (63 m), Mahaveer Enclave Part II  Gali No.4 (278 m), Mahaveer Enclave Part II Gali No.4 (276 m), Dwarka Puri (296 m)",Dashrath Puri,Magenta Line,824.28,9.89
Mahaveer Enclave Part II  and  III,28.6039702391033,77.0719837762477,96,96,0.0017667844522968,0.0054011585282413,0.0004160564924666,"Mahaveer Enclave Part II  and  III (36 m), Binda Pur 60 Foota Road (118 m), SFS Flat Sec-2 Power House (406 m), Mahaveer Enclave Part II  Gali No.10 (378 m), Vijay Enclave (New Dwarka Road) (398 m)",Dashrath Puri,Magenta Line,1040.74,12.49
SFS Flat Sec-2 Power House,28.600333,77.071483,49,49,0.0007571933366986,0.0004553992593807,0.00018415035961,"SFS Flats Sec-2 Power House (49 m), Binda Pur 60 Foota Road (340 m), Mahaveer Enclave Part II  and  III (406 m), Mahaveer Enclave Part II  and  III (412 m), Dwarka Sec-1 Mahalaxmi Apartment (439 m)",Dashrath Puri,Magenta Line,1077.15,12.93
Dwarka Sec-1 Mahalaxmi Apartment,28.5964312,77.0722357,96,96,0.0025239777889954,0.0023828568000832,0.0003193720630002,"Dwarka Sec-1 Mahalaxmi Apartment (48 m), Dwarka Sec 1 (248 m), J M International School (234 m), Dwarka Sec 1 (253 m), J M International School (241 m)",Dashrath Puri,Magenta Line,1159.28,13.91
Dwarka Sec-6 Telephone Exchange,28.593125,77.071251,78,78,0.0025239777889954,0.0057244325102269,0.000356923959712,"Sec-6 Telephone Exchang (6 m), Dwarka Sec 6/7 (25 m), Dwarka Sec-6 Telephone Exchange (26 m), Dwarka Sec-6 Telephone Exchange (28 m), Dwarka Sec 6/7 (72 m)",Palam,Magenta Line,1140.27,13.68
Dwarka Sec-6/7,28.59012,77.068955,70,70,0.0030287733467945,0.0022639936027714,0.0003671143681669,"Dwarka Sec-6/7 Xing (5 m), Dwarka Sector-7 Princess Park Apartment (15 m), Dwarka Sec 6 (99 m), President Cabinet Apartment (111 m), Dwarka Sec-6/7 (138 m)",Palam,Magenta Line,1370.85,16.45
Princess Park/ Airforce Noval Office Enclave,28.587302,77.066549,67,67,0.0040383644623927,0.0041291136445577,0.0005635558189656,"Sec-7 Prince Park (36 m), Princess Park/ Airforce Noval Office Enclave (44 m), Dwarka Sec-6/10 Market (44 m), Princes Apartment Sec-7 (55 m), Dwarka 6/10 Xing (63 m)",Dwarka Sector 10,Blue Line,1123.67,13.48
President Cabinet Apartments,28.582817,77.062683,42,42,0.0017667844522968,0.0012283874027937,0.000250849654216,"President Cabinet Appt (20 m), President Cabinet Apartments (40 m), Sector 8 DTC Bus Depot (146 m), President Cabinet Appartment (185 m), Dwarka Court (337 m)",Dwarka Sector 10,Blue Line,543.28,6.52
NHAI Building/ Dwarka Sec-10 Metro Station,28.578409,77.058932,46,46,0.0022715800100959,0.0111122542204938,0.0005414940807108,"Dwarka Court (25 m), NHAI Building/ Dwarka Sec-10 Metro Station (75 m), Dwarka Court (102 m), Dwarka Sec-19 Pkt.-2. (157 m), Dwarka Court (249 m)",Dwarka Sector 10,Blue Line,325.28,3.9
Dwarka Sec-19 Modern School,28.578591,77.054908,14,14,0.000504795557799,0.0053348594778512,0.0001134691467845,"Dwarka Sec-19 Modern School (84 m), Dwarka Sec 19-20 Crossing (309 m), Dwarka Sec-19 Pkt.-2. (312 m), Dwarka Sec 19-20 Crossing (332 m), Dwarka Sec-10 Terminal (351 m)",Dwarka Sector 10,Blue Line,372.85,4.47
Amrohi More,28.574383,77.05115,14,14,0.0007571933366986,0.0053264909525521,0.0002639135618435,"Amrohi More (50 m), St Marry School (263 m), St Marry School (288 m), DDA Booster Pump Station (354 m), DDA Booster Pump Station (377 m)",Dwarka,Blue Line,739.5,8.87
St Marry School,28.573412,77.048418,22,22,0.0012619888944977,0.0095497952849437,0.0002799849759113,"St Marry School (27 m), Amrohi More (288 m), Amrohi More (322 m), Nirankari Chowk Dwarka (364 m), School Of Excellence Dwarka (374 m)",Dwarka,Blue Line,581.62,6.98
Police Post,28.577292,77.035195,14,14,0.0007571933366986,0.001676057993087,0.0003685932810792,"Police Post (20 m), Qutub Vihar Phase-I Kikar Stand (545 m), Palm Court Sec 19B Dwarka (564 m), Dwarka Sec 18A (666 m), Palm Court Sec 19B Dwarka (595 m)",Dwarka,Blue Line,890.2,10.68
Qutub Vihar Phase-I Kikar Stand,28.578247,77.02915,14,14,0.000504795557799,0.0012817946336879,0.0001850227019605,"Qutub Vihar Phase-I Kikar Stand (63 m), Jhankar Crossing (478 m), Jhankar Crossing (488 m), Police Post (601 m), Police Post (612 m)",Dwarka,Blue Line,1486.13,17.83
Jhankar Crossing,28.57905,77.024348,14,14,0.0007571933366986,0.0010817223001771,0.0002317033065981,"Jhankar Crossing (23 m), Goyla Dairy (Qutub Vihar) (251 m), Goyla Dairy (292 m), Qutub Vihar Phase-I Kikar Stand (478 m), Nehru Bus Stand Goyla Dairy (512 m)",Dwarka,Blue Line,1962.15,23.55
Goyla Dairy,28.579766,77.021478,7,7,0.000504795557799,0.0004644379405877,0.0001420195894699,"Goyla Dairy (Qutub Vihar) (48 m), Nehru Bus Stand Goyla Dairy (220 m), Nehru Bus Stand Goyla Dairy (232 m), Jhankar Crossing (281 m), Jhankar Crossing (292 m)",Dwarka Sector 13,Blue Line,2245.98,26.95
Nehru Bus Stand Goyla Dairy,28.580346,77.019327,16,16,0.0007571933366986,0.0014716139180241,0.0002182942824765,"Nehru Bus Stand Goyla Dairy (19 m), Goyla Dairy (220 m), Goyla Dairy (Qutub Vihar) (263 m), St Thomas School Goyla Vihar (447 m), St Thomas School Goyla Vihar (452 m)",Dwarka Sector 13,Blue Line,2311.65,27.74
St Thomas School Goyla Vihar,28.581816,77.015072,12,12,0.000504795557799,0.0018265366944067,0.0001461437056107,"St Thomas School Goyla Vihar (10 m), Taj Pur More (363 m), Taj Pur More (382 m), Nehru Bus Stand Goyla Dairy (435 m), Taj Pur More (443 m)",Dwarka Sector 14,Blue Line,2502.77,30.03
Taj Pur More,28.58327,77.011534,18,18,0.0022715800100959,0.0090746858954828,0.0005997375571823,"Taj Pur More (24 m), Taj Pur More (61 m), Taj Pur More (75 m), Goyla Primary School (140 m), Goyla Primary School (152 m)",Dwarka Sector 14,Blue Line,2533.09,30.4
Taj Pur Khurd,28.576279,77.008851,10,10,0.000504795557799,0.0008743025870449,0.0001731314163864,"Taj Pur Khurd (47 m), Taj Pur More (820 m), Taj Pur More (822 m), Taj Pur More (818 m), Taj Pur More (830 m)",Dwarka Sector 14,Blue Line,3329.65,39.96
Chhawla Village School,28.565657,77.003299,8,8,0.000504795557799,0.0009623867082927,0.0001392301159305,"Chhawla Village School (27 m), Chhawla School (263 m), Chhawla School (303 m), Chhawla School (330 m), Chhawala Camp (444 m)",Sector 28,Violet Line,3649.55,43.8
Chhawla School,28.566798,77.000183,67,67,0.0025239777889954,0.0036546232073871,0.0005437356043342,"Chhawla School (60 m), Chhawla School (109 m), Chhawala Camp (149 m), Chhawla Village School (330 m), Chhawla Village School (336 m)",Sector 28,Violet Line,3968.24,47.62
Rewla Taj Pur More,28.578209,76.996491,59,59,0.0020191822311963,0.003075931493036,0.0004046395547026,"Jhatikara Xing (28 m), Rewla Taj Pur More (37 m), Jhatikara Crossing (702 m), Jhatikara Xing (725 m), Jhatikra Crossing Pandwala Road (726 m)",Najafgarh,Grey Line,4022.56,48.27
Jhatikra Crossing Pandwala Road,28.5846382853658,76.9950528230485,27,27,0.0012619888944977,0.0003661124201696,0.0002973861228329,"Jhatikara Xing (16 m), JHATIKARA XING (26 m), Jhatikara Crossing (69 m), Jhatikara Crossing (128 m), adhyapak nagar (531 m)",Najafgarh,Grey Line,3306.86,39.68
Rewla Khanpur Crossing,28.572355,76.980956,26,26,0.0015143866733972,0.0004984482341663,0.0003215164037173,"Rewala Khampur (17 m), Rewla Tajpur Crossing (27 m), Rewla Khanpur Crossing (26 m), Rewala Khampur Xing (30 m), Purani Basti Rewla Khanpur (444 m)",Najafgarh,Grey Line,4429.73,53.16
Purani Basti Rewla Khanpur,28.569584,76.977685,42,42,0.0010095911155981,0.0006507624213382,0.0001331747967867,"Purani Basti Rewla Khanpur (22 m), Prem Nagar (28 m), Prem Nagar (38 m), Rewla Khanpur Depot (139 m), Rewla Khanpur Depot (144 m)",Najafgarh,Grey Line,4756.94,57.09
Pandwala Crossing,28.558043,76.974025,67,67,0.0030287733467945,0.010294090831853,0.0006561647988361,"Pindwala Xing (29 m), Pindwala X-Ing (41 m), Pandwala Crossing (51 m), Osho Dhyan Mandir Jhatikra Road (431 m), Osho Dhyan Mandir Jhatikra Road (458 m)",Najafgarh,Grey Line,6069.12,72.83
Pandwala Khurd,28.562304,76.967114,17,17,0.000504795557799,0.0,0.000104204526741,"Pandwala Khurd (28 m), Pandwala Kalan (T) (777 m), Pandwala Kalan (T) (785 m), Pandwala Crossing (791 m), Pindwala X-Ing (793 m)",Najafgarh,Grey Line,5739.42,68.88
Pandwala Kalan (T),28.5670407245873,76.9611487565175,18,18,0.0007571933366986,4.230560497448397e-05,0.0001982790267882,"Pandwala Kalan (T) (16 m), Pandwala Khurd (785 m), Pandwala Khurd (808 m), Pandwala Crossing (1142 m), Pandwala Crossing (1157 m)",Najafgarh,Grey Line,5429.81,65.16
Pandwala Kalan (T),28.5670787716821,76.9613050879626,18,18,0.0007571933366986,4.230560497448397e-05,0.0001982790267882,"Pandwala Kalan (T) (16 m), Pandwala Khurd (777 m), Pandwala Khurd (799 m), Pandwala Crossing (1151 m), Pandwala Crossing (1166 m)",Najafgarh,Grey Line,5420.08,65.04
Pandwala Khurd,28.562281,76.967398,17,17,0.000504795557799,0.0,0.000104204526741,"Pandwala Khurd (28 m), Pandwala Crossing (766 m), Pindwala X-Ing (768 m), Pandwala Kalan (T) (799 m), Pindwala Xing (790 m)",Najafgarh,Grey Line,5734.72,68.82
Pandwala Crossing,28.5584955803388,76.9739450363129,67,67,0.0030287733467945,0.010294090831853,0.0006561647988361,"Pindwala X-Ing (11 m), Pindwala Xing (26 m), Pandwala Crossing (51 m), Osho Dhyan Mandir Jhatikra Road (479 m), Osho Dhyan Mandir Jhatikra Road (506 m)",Najafgarh,Grey Line,6020.49,72.25
Rewla Khanpur Depot,28.568907615,76.9764290249,26,26,0.000504795557799,0.0,9.264106872900135e-05,"Rewla Khanpur Depot (38 m), Prem Nagar (115 m), Prem Nagar (122 m), Purani Basti Rewla Khanpur (127 m), Purani Basti Rewla Khanpur (144 m)",Najafgarh,Grey Line,4844.81,58.14
Badarpur Border (T),28.493092,77.303489,73,73,0.0015143866733972,0.0002287483224533,0.000279520010488,"Jaitpur Mor (492 m), Jaitpur Crossing (570 m), Jaitpur Crossing (570 m), Jaitpur Crossing (660 m), Badarpur M B Road / Rajiv Gandhi Stadium (805 m)",Badarpur Border,Violet Line,292.26,3.51
Jaitpur Crossing,28.498696,77.301223,52,52,0.0015143866733972,0.0005942219549,0.0002219646680304,"Jaitpur Crossing (114 m), Jaitpur Crossing (115 m), Jaitpur Mor (171 m), Badarpur M B Road (211 m), Badarpur M B Road / Rajiv Gandhi Stadium (224 m)",Tughlakabad Station,Violet Line,450.07,5.4
Badarpur M B Road / Rajiv Gandhi Stadium,28.499178,77.299004,23,23,0.0015143866733972,0.004160435225157,0.0003326263381793,"Badarpur M B Road (44 m), Jaitpur Crossing (224 m), Badarpur Village (336 m), Badarpur Village (347 m), Jaitpur Crossing (333 m)",Tughlakabad Station,Violet Line,353.39,4.24
Prehlad Pur,28.500583,77.293883,126,126,0.003281171125694,0.0380745425198349,0.0005286749724826,"Prehlad Pur (98 m), Surajkund Crossing (308 m), Surajkund Crossing (418 m), Badarpur M B Road / Rajiv Gandhi Stadium (525 m), Badarpur M B Road (541 m)",Tughlakabad Station,Violet Line,560.22,6.72
Surajkund Crossing,28.501567,77.289765,51,51,0.0007571933366986,0.0114545350580088,0.0001391622068355,"Surajkund Crossing (122 m), Prehlad Pur (418 m), Prehlad Pur (507 m), Lal Kuan (526 m), Lal Kuan (638 m)",Tughlakabad Station,Violet Line,931.79,11.18
Lal Kuan,28.5023,77.2833,52,52,0.0012619888944977,0.0143195632752866,0.0002471503677101,"Lal Kuan (124 m), Prem Nagar (345 m), Prem Nagar (456 m), Maa Anand Mayee Marg (642 m), okhla crossing (674 m)",Tughlakabad Station,Violet Line,1560.58,18.73
Prem Nagar,28.5036,77.2801,173,173,0.0058051489146895,0.1166890419640078,0.0013331117746792,"Prem Nagar (118 m), Maa Anand Mayee Marg (326 m), Okhla more (338 m), Lal Kuan (345 m), Okhla More (353 m)",Tughlakabad Station,Violet Line,1878.88,22.55
Tuglaqabad MB Road,28.505533,77.276483,11,11,0.0007571933366986,0.0075924278418445,0.0001488233304153,"MB Road (35 m), Okhla More (64 m), Okhla more (77 m), Maa Anand Mayee Marg (193 m), okhla xing (303 m)",Mohan Estate,Violet Line,2359.43,28.31
Kaya Maya Hospital,28.507933,77.26915,46,46,0.0020191822311963,0.0202193868865017,0.0004435945819338,"Kaya Maya Hospital (37 m), Tughalqabad Village (414 m), Tughlaqabad Village (433 m), Tuglkabad Fort (595 m), MB Road (737 m)",Mohan Estate,Violet Line,2805.02,33.66
Tughalqabad Village,28.509067,77.265117,23,23,0.0010095911155981,0.0001398242017909,0.0002046922633904,"Tughlaqabad Village (27 m), Tuglkabad Fort (186 m), Tuglkabad Fort (352 m), Kaya Maya Hospital (392 m), Kaya Maya Hospital (414 m)",Sarita Vihar,Violet Line,3147.66,37.77
Air Force Station,28.5114,77.256483,48,48,0.003281171125694,0.0300221120271958,0.0005568589227864,"Air Force Station (104 m), Tuglakabad F (130 m), Air Force Station (140 m), Air Force Station (203 m), Majeedia Hospital (530 m)",Govind Puri,Violet Line,3733.28,44.8
Air Force Station,28.511533,77.254417,48,48,0.003281171125694,0.0300221120271958,0.0005568589227864,"Air Force Station (104 m), Air Force Station (203 m), Tuglakabad F (330 m), Air Force Station (338 m), Majeedia Hospital (406 m)",Greater Kailash,Magenta Line,3708.22,44.5
Hamdard Nagar / Sangam Vihar,28.511838,77.249778,93,93,0.0012619888944977,0.0069237229990327,0.0002561879359099,"Hamdard Nagar / Sangam Vihar (115 m), Majeedia Hospital (449 m), Majeedia Hospital (453 m), Hamdrad nagar (463 m), Air Force Station (455 m)",Greater Kailash,Magenta Line,3508.86,42.11
Batra Hospital (Satya Narayan Mandir),28.5121,77.2435,38,38,0.0012619888944977,0.0020479058484839,0.0002549549354925,"Batra Hospital / Satya Narayan Mandir (39 m), Vayusena Bad (444 m), Vayu Sena Bad (Tigri) (459 m), Hamdrad nagar (500 m), Hamdrad nagar (511 m)",Greater Kailash,Magenta Line,3336.94,40.04
Vayu Sena Bad (Tigri),28.5129,77.2385,58,58,0.0020191822311963,0.0002950474566787,0.000283261220845,"Devoli Road X (11 m), Vayu Sena Bad (Tigri) (39 m), Vayusena Bad (55 m), Khanpur Extension / Devli Crossing (362 m), Khanpur Village (363 m)",Chirag Delhi,Magenta Line,2977.9,35.74
Khanpur Village,28.5137,77.2349,6,6,0.000504795557799,2.8610016946387245e-05,0.0001008863244933,"Khanpur Extension / Devli Crossing (4 m), Devoli Road X (15 m), Khanpur Extension / Devli Xing (59 m), Devli Xing (83 m), Devoli Road Crossing (179 m)",Saket,Yellow Line,2388.56,28.66
Ambedkar Nagar Depot,28.5151,77.2286,78,78,0.0047955577990913,0.0078738803582514,0.0008715046474121,"Ambedkar Nagar Depot (27 m), Ambedkar Nagar Depot (31 m), Ambedkar Nagar Terminal (93 m), Khanpur Ambedkar Nagar (202 m), Khanpur Ambedkar Nagar (233 m)",Saket,Yellow Line,1784.6,21.42
Khanpur Ambedkar Nagar,28.5162405662911,77.2266044955944,16,16,0.0012619888944977,0.0002710747118103,0.0001087080678979,"Khanpur Ambedkar Nagar (35 m), Ambedkar Nagar Terminal (96 m), Ambedkar Nagar Terminal (96 m), DIPSAR College of Pharmacy (172 m), DIPSAR Ambedkar Nagar College of Pharmacy (177 m)",Saket,Yellow Line,1552.17,18.63
Madangir DDA Flats,28.5203474174121,77.2280986688335,44,44,0.0025239777889954,0.0281049846792315,0.0012984225473424,"Madangir DDA Flats (23 m), P.S. Madan Gir (153 m), virat cinema (209 m), Khanpur Ambedkar Nagar (472 m), Khanpur Ambedkar Nagar (478 m)",Saket,Yellow Line,1477.23,17.73
Madangir DDA Flats,28.5247299436444,77.2300662797738,44,44,0.0025239777889954,0.0281049846792315,0.0012984225473424,"Madangir DDA Flats (31 m), Pushpa Bhawan (275 m), virat cinema (366 m), ps madan gir (355 m), P.S. Madan Gir (354 m)",Chirag Delhi,Magenta Line,1499.13,17.99
Pushpa Bhawan,28.5281528237937,77.2313535422157,46,46,0.0012619888944977,0.0093947848363796,0.0001493089558485,"Ambedkar Nagar Sec-4 virat Cinema (7 m), Pushpa Bhawan (68 m), ps madan gir (119 m), Pushpa Bhawan (129 m), P.S. Madan Gir (143 m)",Chirag Delhi,Magenta Line,1152.7,13.83
Sheikh Sarai Phase II,28.5336873816118,77.2318220023177,60,60,0.0025239777889954,0.0107255111783614,0.0005724029430342,"Sheikh Sarai Phase II (0 m), Sheikh Sarai Phase II (38 m), Sheikh Sarai Phase II (133 m), Sheikh Sarai More (147 m), Sheikh Sarai More (155 m)",Chirag Delhi,Magenta Line,615.24,7.38
Chirag Delhi,28.5392502664211,77.2319843535589,48,48,0.0017667844522968,0.0011406276101508,0.0003438775997431,"Chirag Delhi (43 m), Chirag Dilli (326 m), Chirag Dilli (341 m), Panchsheel Enclave (421 m), Panchsheel Enclave (426 m)",Chirag Delhi,Magenta Line,402.39,4.83
Panchsheel Enclave,28.5430464791902,77.2310750492579,31,31,0.0020191822311963,0.0059297821399797,0.0003588933079451,"Panchsheel Enclave (4 m), Panchsheel Enclave (23 m), Panchsheel Enclave (33 m), Chirag Dilli (119 m), Chirag Dilli (224 m)",Chirag Delhi,Magenta Line,618.13,7.42
Krishi Vihar,28.5466885513153,77.2293459871191,32,32,0.0015143866733972,0.0044348158930113,0.0004017250017104,"Krishi Vihar (54 m), Panchsheel Enclave (438 m), Panchsheel Enclave (441 m), Panchsheel Enclave (450 m), Panchsheel Enclave (451 m)",Chirag Delhi,Magenta Line,955.5,11.47
Siri Fort Road,28.5528190392995,77.2279634082145,34,34,0.0025239777889954,0.0052324748733671,0.0006091262791492,"Siri Fort Road (58 m), Siri Fort Road (195 m), Sadiq Nagar (381 m), Sadiq Nagar (402 m), Sadiq Nagar (494 m)",Moolchand,Violet Line,1424.93,17.1
Kamla Nehru College/Niti Bag,28.55785,77.217533,15,15,0.0017667844522968,0.0010582202790695,0.0002829204745321,"Niti Bagh (2 m), Neeti Bagh (2 m), Neeti Bagh (20 m), Anandlok (93 m), Neeti Bagh (96 m)",Green Park,Yellow Line,1061.32,12.74
Uday Park,28.5591,77.2193,21,21,0.0007571933366986,0.0002047532932276,9.474062342931887e-05,"Neeti Bagh (129 m), Anandlok (133 m), Kamla Nehru College/Niti Bag (222 m), Neeti Bagh (223 m), Niti Bagh (223 m)",Green Park,Yellow Line,1232.46,14.79
Ayurvigyan Nagar,28.5614,77.2222,38,38,0.0012619888944977,0.0009556300984091,0.0002508116485422,"Ayurvigyan Nagar (136 m), Uday Park (381 m), Andrews Ganj Shiv Mandir / Ansal Plaza (498 m), Andrews Ganj Shiv Mandir / Ansal Plaza (502 m), Neeti Bagh (510 m)",Moolchand,Violet Line,1227.82,14.73
Andrews Ganj Shiv Mandir / Ansal Plaza,28.56545,77.2245,35,35,0.0022715800100959,0.0006851812270003,0.0003561478043175,"Andrews Ganj Shiv Mandir / Ansal Plaza (21 m), South Extension-2 (332 m), South Ext Kotla Petrol Pump (339 m), South Extension (349 m), Ayurvigyan Nagar (502 m)",Moolchand,Violet Line,963.74,11.57
South Extension,28.568367,77.22315,145,145,0.0035335689045936,0.0027649996258028,0.0005157590837343,"South Ext Kotla Petrol Pump (11 m), South Extension-2 (17 m), South Ext Kotla Petrol Pump (207 m), South Extension (247 m), Andrews Ganj Shiv Mandir / Ansal Plaza (349 m)",Moolchand,Violet Line,1174.06,14.09
South Extn Kotla Petrol Pump,28.568682,77.218314,79,79,0.0030287733467945,0.0017462849419562,0.0003361155673384,"South Extension (142 m), South Extension (232 m), South Ext Kotla Petrol Pump (274 m), AIIMS (453 m), South Extension (474 m)",INA,Yellow Line,1013.14,12.16
AIIMS,28.568914,77.213693,83,83,0.003281171125694,0.0026241838014671,0.0003868144580662,"AIIMS Ring Road (103 m), South Extension (315 m), South Extn Kotla Petrol Pump (453 m), Safderjung Hospital (506 m), AIIMS (601 m)",AIIMS,Yellow Line,619.35,7.43
SJ Hospital Ring Road,28.569541,77.203522,97,97,0.0022715800100959,0.002843593350734,0.0003237277107583,"SJ Hospital (90 m), SJ Hospital (97 m), Raj Nagar (196 m), Raj Nagar (208 m), Raj Nagar (242 m)",AIIMS,Yellow Line,513.76,6.17
Raj Nagar,28.569651,77.201526,40,40,0.0017667844522968,0.0025257607278754,0.0001959126435554,"Raj Nagar (21 m), Raj Nagar (58 m), SJ Hospital Ring Road (196 m), AB Block Sarojini Nagar (257 m), AB Block Sarojini Nagar (282 m)",AIIMS,Yellow Line,687.88,8.25
AB Block Sarojini Nagar,28.570583,77.199117,12,12,0.0020191822311963,0.0015952567798152,0.0002126474988439,"AB Block Sarojini Nagar (76 m), Raj Nagar (204 m), Raj Nagar (254 m), Raj Nagar (257 m), Nauroji Nagar (342 m)",Sarojini Nagar,Pink Line,539.73,6.48
PS Sarojini Nagar,28.5752,77.199017,9,9,0.0015143866733972,0.0001482558265545,0.0002467099823803,"Police Station Sarojini Nagar (33 m), Sarojini Nagar Market (266 m), Sarojini Nagar Market (301 m), Sarojini Nagar Market (305 m), AB Block Sarojini Nagar (439 m)",Sarojini Nagar,Pink Line,375.02,4.5
Sarojini Nagar Market,28.5776,77.198917,8,8,0.0020191822311963,0.000787616212556,0.0003495233993466,"Sarojini Nagar Market (35 m), Sarojini Nagar Market (39 m), Police Station Sarojini Nagar (235 m), Enquiry Office Pilanji Village (245 m), Enquiry Office Pilanji Village (258 m)",Sarojini Nagar,Pink Line,515.72,6.19
Sarojini Nagar Market (B H Singh Marg),28.5795469,77.1964554,13,13,0.0012619888944977,0.0002884807957824,0.0001756450246557,"Sarojini Nagar Market (B H Singh Marg) (139 m), chankiya bhawan (178 m), Sarojini Nagar Market (302 m), Sarojini Nagar Market (305 m), Enquiry Office Pilanji Village (301 m)",Sarojini Nagar,Pink Line,606.66,7.28
I Block Sarojini Nagar,28.5793728,77.1923393,13,13,0.0017667844522968,5.325166792509694e-05,0.0002296293504701,"I Block Sarojini Nagar (7 m), I Block S N (20 m), I Block Sarojini Nagar (77 m), M Block Sarojini Nagar (253 m), M Block Sarojini Nagar (278 m)",Sarojini Nagar,Pink Line,649.63,7.8
M Block Sarojini Nagar,28.578454,77.189969,30,30,0.002776375567895,0.0012196187951948,0.0005936103422055,"M Block Sarojini Nagar (27 m), I Block Sarojini Nagar (248 m), I Block Sarojini Nagar (253 m), I Block S N (257 m), I Block Sarojini Nagar (330 m)",Sarojini Nagar,Pink Line,711.32,8.54
Sarojini Nagar Depot,28.573407,77.189995,28,28,0.0022715800100959,0.0013226401318049,0.0004931424542029,"Sarojini Nagar Depot (18 m), Sarojini Nagar Depot (162 m), R K Puram More (230 m), Africa Avenue (440 m), Africa Avenue (442 m)",Sarojini Nagar,Pink Line,532.43,6.39
Bhikaji Cama Place,28.568081,77.189577,63,63,0.0017667844522968,0.0012717241054371,0.0001933095170135,"Bhikaji Cama Place (20 m), Netaji Nagar (22 m), Netaji Nagar (31 m), Safdarjung E (180 m), Bhikaji Kama Place (214 m)",Bhikaji Cama Place,Pink Line,251.32,3.02
